"id","name","categories","latitude","longitude","price_level","rating","review_count","distance","neigh_id","neighbourhood","type","cuisine","first_category","name_count"
"K3V9JWBZgIMtSICc4kBRUA","Naan & Kabob","Afghan, Kebab",43.6690684857838,-79.3860201,"Medium",4,175,3920.33441767313,"167","Church-Wellesley","Other","South Asian","Afghan",1
"cTSbGa6sPTknAZd6_G1N5A","Afghano Restaurant","Afghan",43.6557152483362,-79.3646372965889,NA,5,1,4771.36556389641,"073","Moss Park","Other","South Asian","Afghan",1
"S-jKUDEKOmaOpgdU32gNWA","Naan Kabob","Kebab, Afghan, Halal",43.6503555207276,-79.3906833186624,NA,5,6,2595.4042072468,"078","Kensington-Chinatown","Other","South Asian","Kebab",2
"GdCRQU3VCh_x8fY84mbwYQ","Bamiyan Kabob","Afghan",43.70779,-79.34344,"Medium",4,166,9403.66232387503,"055","Thorncliffe Park","Other","South Asian","Afghan",2
"uvhc7DWuSy5BP6nOTM6Vyw","Diamond Kabab","Afghan",43.65707,-79.40597,NA,5,2,1835.00967360438,"079","University","Other","South Asian","Afghan",1
"MvNRA9k-xF9ug5gXZexPog","Naan And Kabob","Afghan",43.7049057279802,-79.3614039241258,NA,4,28,8222.20822850657,"056","Leaside-Bennington","Other","South Asian","Afghan",1
"I6nkV6OY9UZtttZEefgydg","Kabob Guys","Afghan, Halal, Kebab",43.648153,-79.395679,NA,4.2,10,2154.48192776816,"164","Wellington Place","Other","South Asian","Afghan",1
"oiocguLkMNwH6gux2wxMfQ","Shawarma House","Afghan",43.64974,-79.36561,"Medium",3.4,16,4590.23380881523,"166","St Lawrence-East Bayfront-The Islands","Other","South Asian","Afghan",1
"4QTwtaua8tjc-PuneLXJzw","Kabul Kabab House","Halal, Afghan, Middle Eastern",43.6716309,-79.3256378,NA,3.8,6,8296.29783381216,"065","Greenwood-Coxwell","Other","South Asian","Halal",1
"sXLTlGSaK1e1fna5e3V_Rw","Mazar's Kitchen","Halal, Afghan, Vegan",43.6517657,-79.4049646,NA,3,2,1555.27627049919,"078","Kensington-Chinatown","Other","South Asian","Halal",1
"8pJnxLwrosp1m-AkZs_V0Q","Mazadar","Afghan",43.6664947885561,-79.3170488253236,NA,4.2,5,8778.43472213335,"065","Greenwood-Coxwell","Other","South Asian","Afghan",1
"VtQIAj8eXvHqc_8MtMMGwg","Afghan Cuisine","Afghan",43.70805,-79.34294,"Medium",3.7,69,9430.13626475276,"055","Thorncliffe Park","Other","South Asian","Afghan",1
"5B_YKWtJthJqmD5MYw2maA","Hot Pot Cafe","Middle Eastern, Halal, Afghan",43.6862154,-79.3112465,"Low",4,8,10010.6667027145,"062","East End-Danforth","Other","South Asian","Middle Eastern",1
"ytYP2UXkRow2L3emGp469w","Afghan Kebob Cuisine","Afghan",43.7160486,-79.5556858,"Low",3.6,16,13295.5835386138,"004","Rexdale-Kipling","Other","South Asian","Afghan",1
"sqj18NheItQq-PR9c4uM4g","Kandahar Kabab","Afghan",43.7051458823459,-79.3486794388337,NA,2.7,44,8889.14633179435,"055","Thorncliffe Park","Other","South Asian","Afghan",1
"fmPl4IK9gi2HdxeFuzRqjA","Afghan Palace","Afghan",43.6716805,-79.3250961,"Extra High",1,2,8333.08308619441,"065","Greenwood-Coxwell","Other","South Asian","Afghan",1
"jsMDbYZVaw9g0_FmsS17bA","Grill N Thrill Kabob","Food Trucks, Afghan, Burgers",43.6617953687539,-79.3977532641196,NA,2.3,3,2678.00427264036,"079","University","Street Food","South Asian","Food Trucks",1
"V-aweI6rrw8d6MfG1lAPjw","Little Kabul Kabob","Afghan",43.7146088321063,-79.5687001462575,NA,4.1,9,14065.8443170417,"001","West Humber-Clairville","Other","South Asian","Afghan",1
"TgjLGtUexuR7wctaEEpHuQ","Amin Foodmart Halal Meat Afghan Bakery","Butcher, Afghan, Bakeries",43.7141919561343,-79.5581489056349,NA,5,2,13336.7630808184,"004","Rexdale-Kipling","Cafe/Bakery","South Asian","Butcher",1
"SO967mepbkVeGtJ7pg7c1Q","Mumtaz Grill Restaurant","Afghan, Middle Eastern, Persian/Iranian",43.7460141,-79.48688,NA,3.9,8,12317.9411259143,"027","York University Heights","Other","South Asian","Afghan",1
"yU4zevCwPAQIMb73smTHog","Bamiyan Kabob","Afghan",43.77361,-79.4920999,"Medium",4.1,94,15297.9687394969,"027","York University Heights","Other","South Asian","Afghan",2
"R0VWDbJxUt4xZ3Os_YLDDg","Zaytoun Kitchen","Afghan, Halal, Chicken Wings",43.714982505415,-79.5937590371701,NA,4.3,4,15812.0636522412,"001","West Humber-Clairville","Other","South Asian","Afghan",1
"8OXgrxXm45OauJsc0lGRPw","Baghlan Kebob & Bakery","Afghan, Bakeries",43.7142045953301,-79.5583274831869,NA,4.2,9,13349.3390070606,"004","Rexdale-Kipling","Cafe/Bakery","South Asian","Afghan",1
"OR648Fgmc6oGvobTT5h-ig","Naan Kabob","Afghan, Kebab",43.7721615317274,-79.2819063903285,NA,4.8,5,18046.1373116563,"126","Dorset Park","Other","South Asian","Afghan",2
"Z7ZX_0Ha9EpXgBktztbvIQ","North Kabab","Afghan",43.7446606441716,-79.2200599020909,NA,3,1,19642.42714972,"139","Scarborough Village","Other","South Asian","Afghan",1
"ceK2VvPlxPBPo1evXOlD7g","Naan and Kabob","Afghan, Middle Eastern",43.74251,-79.3051799,"Medium",3.7,90,14307.8379132489,"119","Wexford/Maryvale","Other","South Asian","Afghan",2
"KWKZvqNtsnPQltn6ZxOjDw","Al-Meezans Spicy Grill","Middle Eastern, Afghan",43.72075,-79.6132499,"Low",3.2,17,17482.4502819671,"001","West Humber-Clairville","Other","South Asian","Middle Eastern",1
"nuNraiaIluYc9vDZg7XfRA","Naan and Kabob","Halal, Afghan",43.775038,-79.25738,"Medium",2.9,15,19573.5582453205,"156","Bendale-Glen Andrew","Other","South Asian","Halal",2
"09Z8oXGu9qA9xBwzgSFVfg","Plan B","South African",43.6479836241101,-79.5075397487381,NA,4.7,48,6870.16965147304,"016","Stonegate-Queensway","Other","African","South African",1
"TDgaxOFpTKm0zkpviNelpw","Afrobeat Kitchen","African",43.640425,-79.438448,NA,4.9,11,1420.70795472539,"086","Roncesvalles","Other","African","African",1
"B70U6-FOn_R45tfOcQADWg","Naija Jollof","African, Fast Food",43.6474104,-79.4044053,NA,5,1,1450.02305959729,"081","Trinity-Bellwoods","Fast Food","African","African",2
"ghzioC59ZinPKkqeusOR_w","Jollof King","African",43.664582,-79.402383,NA,5,1,2660.7223210965,"079","University","Other","African","African",1
"Ur7mW63wJIvrezZNHoHhJQ","BSTO.","Comfort Food, African",43.676948602125,-79.4485002889549,NA,5,1,4088.85817908155,"092","Corso Italia-Davenport","Other","African","Comfort Food",1
"LzmqBj_CmwGNtrF6Cmm2Jw","Mesobs Restaurant","African",43.658858,-79.442555,NA,1,1,2230.88425556826,"171","Junction-Wallace Emerson","Other","African","African",1
"c0JwlmMcjTlgIAdx_tKg_w","Mild Afro Lounge","Lounges, African",43.64971,-79.42023,NA,3.1,10,481.108537607014,"081","Trinity-Bellwoods","Lounges","African","Lounges",1
"efFIGYJDnqPnjXlASxF7PQ","Lucy Ethiopian Restaurant","Ethiopian, African",43.6841128,-79.3207142,"Medium",4.4,76,9226.89980331466,"066","Danforth","Other","African","Ethiopian",1
"UsKmYp0m8VYWM96tkGm2vQ","African Palace","Ethiopian, African",43.66107,-79.42895,"Medium",3.9,100,1825.71024224675,"080","Palmerston-Little Italy","Other","African","Ethiopian",1
"yGoQENv-m4dkY4XkUgV6Sg","Galito's Flame Grilled Chicken","African, Chicken Shop",43.7058562214437,-79.345849044621,NA,4.3,3,9100.30559380466,"055","Thorncliffe Park","Other","African","African",2
"MiapXFjVOZnQ87eGxaOimA","SK Cookks","African, Caribbean",43.6396779,-79.421963680648,NA,3.2,13,644.424813707452,"085","South Parkdale","Other","Latin American","African",1
"-IlQvDjwqOnA0iqlbmWX-Q","Le Plato","African",43.67935,-79.3415799,NA,4.4,9,7501.05391504179,"069","Blake-Jones","Other","African","African",1
"2pKpeyPnek0I-_yEvlFK3A","MamaLand Resto-Lounge","Caribbean, African, Lounges",43.65899,-79.44242,"Medium",3.2,5,2229.93892018415,"171","Junction-Wallace Emerson","Lounges","Latin American","Caribbean",1
"LGrXzldG5_Q6urGyuqqBrw","Wanaag","African, Coffee & Tea",43.6571922628415,-79.3652309964915,NA,5,7,4767.20209989356,"073","Moss Park","Cafe/Bakery","African","African",1
"dLx4U_l-PF_5VGbjzPfSwQ","Instant du Palais","African",43.70308,-79.38773,NA,4.5,8,6985.01846748634,"099","Mount Pleasant East","Other","African","African",1
"-hAFDLTPzrPA8zVqD9-Agg","Mushkaki's","African, Burgers, Sandwiches",43.7111454,-79.5677166,"Low",3.9,47,13793.4893528248,"001","West Humber-Clairville","Street Food","African","African",1
"ebXxKRelQuT1td5ON_5hUg","Ryan Restaurant","African, Middle Eastern",43.65597,-79.36409,NA,4,3,4815.7856442451,"072","Regent Park","Other","Middle Eastern","African",1
"VQ39EBhWh5EcyOpp2Hd6mQ","Calabar Grill","African",43.6874191266778,-79.4909542993467,NA,4.3,3,7233.13609158,"115","Mount Dennis","Other","African","African",1
"C312Uq4rp3e3pPas3dHw4Q","Ethio & Eri","African, Ethiopian, Cafes",43.65179,-79.40485,NA,4.7,3,1612.59263527291,"078","Kensington-Chinatown","Cafe/Bakery","African","African",1
"RF4o8WMGjClkdDYjlpeljg","African Chop Bar","African",43.749337,-79.553214,NA,4,2,15629.595904284,"022","Humbermede","Other","African","African",1
"gFUSJwVzEDERbaU9FVKfRA","Rajkapuri's Paan & Snacks","African",43.693409,-79.3423964,NA,4,7,8346.01352531927,"058","Old East York","Other","African","African",1
"jyTVMcDQvibPXCNdZ_Fv8g","Ruumors Resto-Lounge","African, Lounges",43.66588,-79.48752,NA,3.8,4,5718.56741919096,"089","Runnymede-Bloor West Village","Lounges","African","African",1
"OJLR2T3CgXQkUgFmqrkTwQ","Istar Restaurant","African, Party Supplies",43.69668,-79.54387,"Medium",4.4,31,11352.7071479948,"006","Kingsview Village-The Westway","Other","African","African",1
"TUD3RUtNdKYh2UyQuYdR2A","Sahan Restaurant","Steakhouses, African",43.7450295437891,-79.2963746935129,"Medium",4.4,67,14997.6469278678,"119","Wexford/Maryvale","Steakhouses","African","Steakhouses",1
"ZeLX4hPOjugN9BNtApNHkQ","Jikoni Grill","Indian, African",43.7911607,-79.3132241,"Medium",4.3,3,18444.244678227,"148","East L'Amoreaux","Other","South Asian","Indian",1
"wjOGOfcZTk_fuZLjbMCmiA","Caribbean Lyme","Caribbean, American, African",43.7434288838849,-79.6054899587193,NA,4,16,18323.1164732568,"001","West Humber-Clairville","Other","Latin American","Caribbean",1
"emNQ1jxMev2NzIcP2wdfgg","Simba Grill","Indian, African",43.6934172072181,-79.3423694245142,"Medium",3.7,27,8347.37618402052,"058","Old East York","Other","South Asian","Indian",1
"DthY4OhALPWRJh0RwADTtw","Naija Jollof","African",43.66504,-79.36796,NA,2,1,4876.12806913978,"071","Cabbagetown-South St.James Town","Other","African","African",2
"TqoS79zEtaV9qpxOIdVnWA","Afro Spice","African",43.7637617,-79.4992268,NA,5,4,14480.368625493,"027","York University Heights","Other","African","African",1
"qmIzqm_LGiNE2bkA2c3o5Q","Idlove Restaurant","African, Pubs",43.6836392,-79.4812898,NA,3,3,6370.61670124897,"111","Rockcliffe-Smythe","Bar","African","African",1
"yBRHaH6WB0kZ1fwgafxwaw","Auntie Lizzy's Kitchen","African",43.7599690966856,-79.5922165677308,NA,3,1,18676.8940528043,"002","Mount Olive-Silverstone-Jamestown","Other","African","African",1
"_IvR1FxOQ7MWzN4_7_aFzw","The Suya Spot","Barbeque, African",43.6546795180043,-79.4016105,NA,1.5,2,1949.3008839435,"078","Kensington-Chinatown","Bar","African","Barbeque",2
"cJsMr9iROwQsslt5eRZDpA","Afro Continental Bar and Grill","African, Dive Bars",43.7345009,-79.5600586,NA,4.5,4,14857.6811313495,"003","Thistletown-Beaumond Heights","Bar","African","African",1
"RL00Hsncq4R-_rJ4pW2Rmw","Nando's","South African, Chicken Shop, Fast Food",43.620746686324,-79.5554268,"Medium",3.2,81,11066.8731063853,"159","Etobicoke City Centre","Fast Food","African","South African",1
"hlfk9WZxWMk6gHbsazhvTg","The Suya Spot","African",43.7397277,-79.5385519,"Medium",2.5,20,14047.1162427207,"022","Humbermede","Other","African","African",2
"xtm1TGGNWXHi-GPGyXZ36Q","New Banadir Restaurant","African",43.70017,-79.50994,NA,3.5,2,9297.45287330385,"113","Weston","Other","African","African",1
"7XCURHVUvP9KjXKNCYAQ_w","Benin Cafe","African",43.7248869962923,-79.5508895069361,NA,3,1,13602.1391331866,"005","Elms-Old Rexdale","Other","African","African",1
"9rvRHoEgbUDAx4jbzv80uQ","Memories of Africa","African",43.72566,-79.31279,"Low",2.7,3,12498.0398145613,"043","Victoria Village","Other","African","African",1
"ELOZiUAykvEPKFw6GF-aAQ","Blessinglicious","African",43.72148,-79.23607,NA,4.2,5,17188.7188107627,"123","Cliffcrest","Other","African","African",1
"7mRKyX7ryuJTPs3Rcaxh4A","Hamdi Restaurant","African, Imported Food",43.7143226,-79.5570968,"Medium",3.3,26,13275.8716589949,"004","Rexdale-Kipling","Other","African","African",1
"hK9TzYbhH3EtzjqLIWcAAQ","Little Naija Restaurant","Caribbean, African",43.7505729991357,-79.5839483888855,NA,1,1,17481.9166584671,"002","Mount Olive-Silverstone-Jamestown","Other","Latin American","Caribbean",1
"k5o2AcLFGPA7ysbESAIdaQ","African Village","African",43.720985,-79.537047,NA,2.5,4,12480.2456155143,"023","Pelmo Park-Humberlea","Other","African","African",1
"iJ2m622G8BXUF8U0O8N09Q","Taste and See Unique African Kitchen","African",43.7566371311195,-79.5193906500936,NA,2.3,3,14622.2310267245,"025","Glenfield-Jane Heights","Other","African","African",1
"7yKiBNv5wpr4xEHIisAXOg","Golden Gate restaurant","African",43.7235107,-79.5598984,NA,3.2,5,14068.9307316308,"004","Rexdale-Kipling","Other","African","African",1
"COExayvsDDJOjWTOFZ7a4A","Panafest","Bars, African",43.7420692,-79.5143433,NA,3.4,5,13044.8543553063,"025","Glenfield-Jane Heights","Bar","African","Bars",1
"_55HxxjTWf1PcGJpVmg5Uw","Akhigbe Nigerian Caterers","African",43.78658,-79.27664,NA,2,1,19622.7711148287,"128","Agincourt South-Malvern West","Other","African","African",1
"yK145_-1BSYzwgn3xjebsA","Charloma Star African and Caribbean Restaurant","African, Caribbean, Food Delivery Services",43.73555,-79.25094,NA,1,1,17027.1026020729,"124","Kennedy Park","Other","Latin American","African",1
"AiMomkhkh6lzKKMYJp9DeQ","Daymi","Arabic",43.6414918747152,-79.4332476,NA,5,2,991.074484450749,"086","Roncesvalles","Other","Middle Eastern","Arabic",1
"vxP5ni5sJcAe8mFkMB8UWw","Zafoon","Middle Eastern, Mediterranean, Arabic",43.657121,-79.405464,NA,5,1,1869.40312591762,"079","University","Other","Mediterranean","Middle Eastern",1
"m_KxjrHzcVgYgtiPlmqFYA","Zezafoun Syrian Cuisine","Syrian, Middle Eastern, Arabic",43.70267,-79.39712,"Medium",4.5,129,6677.05418655828,"174","South Eglinton-Davisville","Other","Middle Eastern","Syrian",1
"yBrTd1g88erfwfplf-4trw","Sultan Lounge","Arabic",43.6550772,-79.3861889,NA,5,1,3089.95472725691,"170","Yonge-Bay Corridor","Other","Middle Eastern","Arabic",1
"68HMOQ42vNOnTJ14bv_RxQ","Mandi Afandi","Arabic, Middle Eastern",43.708328,-79.3426392,NA,4.4,10,9477.25366523222,"055","Thorncliffe Park","Other","Middle Eastern","Arabic",1
"2cJUG8ibxVFXEoYbjD2spg","Poutine Hub","Arabic, Asian Fusion, American",43.6560219563019,-79.3643452227116,NA,5,6,4802.39502291991,"072","Regent Park","Other","East Asian","Arabic",2
"h3qZZBtRVBFlhr-KXFW9vA","Alforat Restaurant","Arabic",43.73636,-79.30813,NA,4.1,20,13659.6815619131,"043","Victoria Village","Other","Middle Eastern","Arabic",1
"_f_ajNgcff2mFzqjmxRItA","Golden Falafel","Falafel, Lebanese, Arabic",43.66571,-79.47413,NA,4.5,2,4741.0990581607,"090","Junction Area","Other","Middle Eastern","Falafel",1
"By9ej8N7bzn_NqbcVhaLtw","Kababia","Middle Eastern, Mediterranean, Arabic",43.68178,-79.33198,NA,3.7,19,8300.57417645297,"066","Danforth","Other","Mediterranean","Middle Eastern",1
"xtzar83lfAQdHMoePUr9Zg","Arabian Bites","Middle Eastern, Arabic",43.65734,-79.38093,NA,3,2,3587.88933075036,"168","Downtown Yonge East","Other","Middle Eastern","Middle Eastern",1
"aCNiO3KPX-nB2vdSRFjxdQ","Palmyra Mediterranean House","Middle Eastern, Arabic, Falafel",43.6500811574448,-79.6041967664423,"Medium",4.2,95,14650.3755262974,"011","Eringate-Centennial-West Deane","Other","Middle Eastern","Middle Eastern",1
"FHxjtI37fZ6VQhdKFIzSTQ","Fantasic Shawarma","Middle Eastern, Arabic",43.74895,-79.56081,NA,5,1,16013.07195239,"021","Humber Summit","Other","Middle Eastern","Middle Eastern",1
"oxf2YmE4puqDRK0o-If_wg","Aldiwan Restaurant","Middle Eastern, Halal, Arabic",43.75958252,-79.22731018,NA,5,2,20173.974676124,"142","Woburn North","Other","Middle Eastern","Middle Eastern",1
"5HeJ9wyEYq9ua5WGxXVjJA","Vos Restaurante Argentino","Argentine",43.6542227481167,-79.423148644379,NA,4.1,44,976.059655753521,"081","Trinity-Bellwoods","Other","Latin American","Argentine",1
"xPP39VfL_uYgKtWkzp_3Sw","Bacan","Argentine, Venezuelan, Desserts",43.6501,-79.4502,NA,3.8,24,2311.37321759227,"086","Roncesvalles","Cafe/Bakery","Latin American","Argentine",1
"UM8ihaRBBW-aJg3pX7CyQw","Gaucho Pie","Argentine",43.6710432483332,-79.4347860664129,NA,4.3,10,3017.76523935278,"171","Junction-Wallace Emerson","Other","Latin American","Argentine",1
"_bTENhxpXDmJozpIU75Hqg","Super Empanada","Latin American, Argentine",43.64507,-79.41588,NA,5,3,520.360069738468,"081","Trinity-Bellwoods","Other","Latin American","Latin American",1
"mkR9joqBBO1hkOi_CkeV-A","The Grill McCoy","Argentine",43.65473,-79.40231,NA,5,2,1912.84413555309,"078","Kensington-Chinatown","Other","Latin American","Argentine",1
"hxsa9bs_ZUR14yOBgTSvzw","W Cabaret","French, Argentine, Italian",43.6440887,-79.4201965,NA,2,1,231.854768187757,"081","Trinity-Bellwoods","Other","European","French",1
"awaQ7qChkqvlpqZcQT0Rcg","Home of Empanada","Argentine",43.75952,-79.22336,NA,5,1,20403.1444111415,"141","Golfdale-Cedarbrae-Woburn","Other","Latin American","Argentine",1
"M6eb5ISVJdiI8W7oHBHeEw","Midnight Market","Lounges, Asian Fusion",43.656738999529,-79.4073457,NA,4.6,14,1733.02234719357,"079","University","Lounges","East Asian","Lounges",1
"c78Pat78fVUBFPXYeVvbaQ","Oddseoul","Korean, Dive Bars, Asian Fusion",43.646192,-79.419762,"Medium",3.8,349,211.050491637271,"081","Trinity-Bellwoods","Bar","East Asian","Korean",1
"B5JCODx4728Ce2Qca1NFHw","Hanmoto","Japanese, Asian Fusion",43.6496209524867,-79.4230549132067,"Medium",4.2,251,466.331161424066,"081","Trinity-Bellwoods","Other","East Asian","Japanese",1
"9BKIXfn0JMcVKILLs1mghg","Holy Cow Japanese Steakhouse","Steakhouses, Halal, Asian Fusion",43.64993,-79.39145,"High",4.2,194,2528.4745766454,"078","Kensington-Chinatown","Steakhouses","East Asian","Steakhouses",1
"zHNk2BnANwkvHvaXD7yYsg","Té","Asian Fusion, Korean, Comfort Food",43.64576,-79.4196739300594,"Medium",3.9,127,207.855762277176,"081","Trinity-Bellwoods","Other","East Asian","Asian Fusion",1
"saijdv-vXJrvsCfvr7SZOw","Katsuya","Japanese, Asian Fusion",43.65995,-79.37882,"Medium",4.4,545,3847.51156984621,"168","Downtown Yonge East","Other","East Asian","Japanese",4
"6hGEIpALyUhte4grCY8Hog","The Opium Bar","Whiskey Bars, Asian Fusion, Cocktail Bars",43.64928,-79.42628,NA,4.3,23,545.146227643332,"084","Little Portugal","Bar","East Asian","Whiskey Bars",1
"7Y2cEnsAUkm6YhP_NSKpYQ","Flaming Kitchen","Chinese, Asian Fusion, Hot Pot",43.6622853,-79.3837757,NA,5,2,3614.56405210888,"169","Bay-Cloverhill","Other","East Asian","Chinese",1
"5UgSHCX-V0iXagxUZ9LEXg","Her Chef","Asian Fusion, Poke, Chicken Shop",43.66457,-79.41292,"Medium",4.6,69,2252.70534393595,"080","Palmerston-Little Italy","Other","East Asian","Asian Fusion",1
"PwyLszmQF28p-84afsbAOA","Hakka Wok Hei","Hakka, Asian Fusion, Indian",43.6501366,-79.4502818,NA,5,4,2316.24335007634,"086","Roncesvalles","Other","South Asian","Hakka",1
"CnPJIGIxTYkIvaWiG9hjTQ","Fallen Feather","Cocktail Bars, Venues & Event Spaces, Asian Fusion",43.6488437159197,-79.4204173,NA,5,1,402.351566373086,"081","Trinity-Bellwoods","Bar","East Asian","Cocktail Bars",1
"domzjJcaFF_R693W4SM8jg","Bảnk Bao","Asian Fusion",43.655946,-79.39889,NA,4.4,14,2211.28317185885,"078","Kensington-Chinatown","Other","East Asian","Asian Fusion",1
"pZ5Xqo784Ppkol2WERFWBA","Jaffna Street Food","Asian Fusion, Fast Food, Sri Lankan",43.6543,-79.39041,NA,4.7,6,2730.52650077424,"078","Kensington-Chinatown","Fast Food","South Asian","Asian Fusion",1
"3aTV63AWpUObtZhrFAp5nA","Three Monks and a Duck","Vegetarian, Asian Fusion, Tapas Bars",43.64605,-79.40897,NA,3.9,85,1065.63231213527,"162","West Queen West","Bar","East Asian","Vegetarian",1
"snw9iNNLpFYZeHotW00uVA","Lee","Asian Fusion",43.6471911512614,-79.3993497,"High",4.1,795,1850.59148732273,"164","Wellington Place","Other","East Asian","Asian Fusion",1
"Aa8igiy4pizfz8XrNqBU4g","Hunan Restaurant","Chinese, Hot Pot, Asian Fusion",43.662376880583,-79.3836633254627,NA,5,1,3627.5691179984,"169","Bay-Cloverhill","Other","East Asian","Chinese",1
"dy0O7DaSUd49NZWSEtvz_g","Foxley Bistro and Bar","Asian Fusion, Tapas Bars",43.64865,-79.42024,"High",4.1,144,387.99395422274,"081","Trinity-Bellwoods","Bar","East Asian","Asian Fusion",1
"BUYhAuPrKRVGov12Q8vsIw","Soya Mandarin Kitchen","Chinese, Asian Fusion",43.65588,-79.39329,NA,4.1,47,2599.31951692102,"078","Kensington-Chinatown","Other","East Asian","Chinese",1
"cO1k0ZuTbY4ppXDbClGhZA","Silk Road Lounge & Restaurant","Asian Fusion, Middle Eastern, Cocktail Bars",43.64503,-79.41608,NA,4.3,12,497.813491900203,"081","Trinity-Bellwoods","Bar","East Asian","Asian Fusion",1
"gcD74zZvgd_sAO0R1o4waQ","Garleek Kitchen","Asian Fusion, Breakfast & Brunch, Himalayan/Nepalese",43.64046,-79.43811,"Medium",4.6,60,1397.86817516508,"086","Roncesvalles","Brunch/Breakfast","South Asian","Asian Fusion",1
"xvIHptTTTQzasrJh2AJQUQ","Dopamina","Mediterranean, Asian Fusion, Tapas Bars",43.6623153826778,-79.3865586072206,NA,4.5,2,3426.74052883756,"169","Bay-Cloverhill","Bar","Mediterranean","Mediterranean",1
"lIGkmfP13Kb4VjbiCgj0Xg","Jade","Asian Fusion",43.673972,-79.3959985889549,NA,5,3,3807.30118799876,"095","Annex","Other","East Asian","Asian Fusion",1
"7i0kkZ79MMkI59qCGilltQ","Norling","Himalayan/Nepalese, Asian Fusion",43.6403518512511,-79.4385082,"Low",4.1,74,1428.45638717281,"086","Roncesvalles","Other","South Asian","Himalayan/Nepalese",1
"b7wUWVV01xaa7E0FUNMDiw","DaiLo","Chinese, Asian Fusion",43.65574,-79.4098,"High",4.2,349,1522.43455635809,"081","Trinity-Bellwoods","Other","East Asian","Chinese",1
"xtGdYkXb4_IE2aSRILzkgQ","Kani","Asian Fusion",43.6472584014356,-79.4026156856018,NA,5,1,1590.36103539314,"164","Wellington Place","Other","East Asian","Asian Fusion",1
"5aYSFNex10jLwTp9mrIZeA","Yubu","Sushi Bars, Korean, Asian Fusion",43.6586799943055,-79.3950836732984,NA,4,11,2631.75828664491,"078","Kensington-Chinatown","Bar","East Asian","Sushi Bars",2
"n2NRR4N-kmeDvhHJivHGkA","Gyu-Kaku Japanese BBQ","Japanese, Barbeque, Asian Fusion",43.6516056,-79.3748825442444,"High",4.1,223,3869.82025907278,"168","Downtown Yonge East","Bar","East Asian","Japanese",1
"Vsdbh4cpYb4ZS4AaJSA2Nw","Poong Moon","Asian Fusion, Korean, Noodles",43.79058,-79.41854,"Medium",4.4,47,16132.6060678879,"036","Newtonbrook West","Other","East Asian","Asian Fusion",1
"jrZ8fnMsvDjZRD7knuzJkg","SeoulChild","Korean, Asian Fusion, Sandwiches",43.6535528,-79.366828,NA,5,1,4543.33611235515,"073","Moss Park","Deli/Sandwiches","East Asian","Korean",1
"K5Q2vkF5UpytV9Q1rB-5Yg","Akira Back","Japanese, Korean, Asian Fusion",43.64541,-79.3923,"Extra High",4,230,2388.43504315728,"164","Wellington Place","Other","East Asian","Japanese",1
"4eqHtgdXEPG6V-Jzy0MhKw","Miss Things","Cocktail Bars, Asian Fusion, Hawaiian",43.6414601,-79.431879,"High",3.4,168,895.634632477694,"085","South Parkdale","Bar","East Asian","Cocktail Bars",1
"CajgenexIctPku94HnkSow","Mikaku Udon Bar","Asian Fusion, Japanese, Breakfast & Brunch",43.6639110039464,-79.3685874492667,NA,4.7,12,4777.67111927246,"073","Moss Park","Brunch/Breakfast","East Asian","Asian Fusion",1
"yP71_LfUPnGIRqA2g09RoQ","Lake Inez","Bars, Asian Fusion",43.67234,-79.32064,"High",4.4,115,8699.59268452159,"065","Greenwood-Coxwell","Bar","East Asian","Bars",1
"smCdDkC7aWPrpquxhuxSXg","Poppadum","Indian, Asian Fusion, Pop-Up Restaurants",43.672472,-79.3879,NA,4.8,9,4080.06171039005,"095","Annex","Street Food","South Asian","Indian",1
"vO4rIXzsK3aWn1EZ4cHwXQ","Mother Tongue","Cocktail Bars, Asian Fusion",43.6473760746769,-79.3932983,NA,3.8,85,2337.20375097482,"164","Wellington Place","Bar","East Asian","Cocktail Bars",1
"a_YDkm5D5W2x8qGBke3qaw","Takoyaki6ix","Asian Fusion, Japanese",43.6550705,-79.3999101,NA,4.6,21,2088.83672060197,"078","Kensington-Chinatown","Other","East Asian","Asian Fusion",1
"JG9UpsFR6hrqQqsKh_RyaQ","PLANTA Yorkville","Vegetarian, Sushi Bars, Asian Fusion",43.67028,-79.38945,"Medium",3.9,538,3810.49474675219,"095","Annex","Bar","East Asian","Vegetarian",1
"WN3NSIJQHfxtjf1kV7snVA","Kevin's Taiyaki","Specialty Food, Asian Fusion, Japanese",43.6638145279363,-79.4162761,"Low",4.5,81,2095.20004818666,"080","Palmerston-Little Italy","Other","East Asian","Specialty Food",1
"S7aRQKxj_IMuA0SBlrMZ5A","Momo Ghar West","Asian Fusion",43.649973,-79.482693,NA,4.8,5,4889.67568978312,"089","Runnymede-Bloor West Village","Other","East Asian","Asian Fusion",1
"zE0Og7r_KILoREfBwP6s0Q","Akin","Asian Fusion",43.6489873122877,-79.3747873,NA,4,2,3836.93949089428,"168","Downtown Yonge East","Other","East Asian","Asian Fusion",1
"uGLAEGqeJa4jtP1Io0sOrg","Mineral","Noodles, Seafood, Asian Fusion",43.67763,-79.38947,NA,4.5,37,4443.67117382001,"098","Rosedale-Moore Park","Other","East Asian","Noodles",1
"_5XClj4E5VCIsEscbrrPKg","LoPan","Cocktail Bars, Chinese, Asian Fusion",43.65574,-79.4098,"High",4.2,26,1522.43455635809,"081","Trinity-Bellwoods","Bar","East Asian","Cocktail Bars",1
"fp8h0LdbO5WxiK41oYgZVA","Idle On Bloor","Lounges, Asian Fusion",43.6603,-79.43255,"Medium",3.4,12,1844.64351033614,"083","Dufferin Grove","Lounges","East Asian","Lounges",1
"OXW2erFOPT-Oov6wChxWYA","Lee Chen Asian Bistro - King","Dim Sum, Asian Fusion",43.6473690555399,-79.3867627903819,"Medium",3.9,231,2861.23752616316,"164","Wellington Place","Other","East Asian","Dim Sum",1
"L41ZNl-dodbQMkckxA7eMA","Thairoomgrand","Thai, Malaysian, Asian Fusion",43.7049801,-79.4077478,"Medium",4.3,33,6717.04454831678,"100","Yonge-Eglinton","Other","East Asian","Thai",1
"mrPohrKI8RLFwnJmB7LKsg","Petit Potato","Asian Fusion",43.6661844,-79.387415,NA,4,13,3626.03498285757,"169","Bay-Cloverhill","Other","East Asian","Asian Fusion",3
"bNynUUb2uYtHGLSD7mS3Bw","Shangrila Tibetan & Asian Cuisine","Himalayan/Nepalese, Asian Fusion, Diners",43.6397400555351,-79.4415438622399,"Medium",4.1,99,1679.97533400551,"086","Roncesvalles","Diner","South Asian","Himalayan/Nepalese",1
"IZk4I8rDH7b5WFdx5jmPRA","Pho Lang Van","Vietnamese, Asian Fusion",43.6795756759952,-79.4361752983373,"Medium",4,58,3954.86769186854,"092","Corso Italia-Davenport","Other","East Asian","Vietnamese",1
"N0l4hT7UCywbZ9UEZ1R9kQ","Patois Toronto","Chinese, Asian Fusion, Caribbean",43.65202,-79.40816,"Medium",3.7,379,1340.81206689076,"081","Trinity-Bellwoods","Other","East Asian","Chinese",1
"WpK-mZ7w-304c78MOEYH6A","Mai Bistro","Asian Fusion, Latin American, Tapas/Small Plates",43.6490027,-79.5285543,"Medium",4.4,102,8564.28625012377,"158","Islington","Other","East Asian","Asian Fusion",1
"b_TEIB6JagOmSvzz2fyBLQ","Happy Tangle","Asian Fusion, Noodles, Dumplings",43.652781341443,-79.3801761031594,NA,2.5,2,3479.56321914633,"170","Yonge-Bay Corridor","Other","East Asian","Asian Fusion",1
"ZDn09j2BtGBZHPsXv2m4oA","The Lost Land","Asian Fusion, Salad",43.651275,-79.3790426478504,NA,3,3,3533.94666246106,"170","Yonge-Bay Corridor","Other","East Asian","Asian Fusion",1
"K2CdjES-IZDDEgetOnf0Vw","One2 Snacks","Malaysian, Chinese, Asian Fusion",43.7866073,-79.2767206,"Low",4.5,268,19571.4966999469,"128","Agincourt South-Malvern West","Other","East Asian","Malaysian",1
"o4EbxgAFBXOYIx8-aMZdgw","My Meatball Place","Asian Fusion",43.6441043655965,-79.4008460764451,NA,4.7,6,1727.00556795925,"164","Wellington Place","Other","East Asian","Asian Fusion",1
"p82Oz-NOHn-MAZQ0jQBkNg","Riki Sushi","Asian Fusion, Sushi Bars",43.6623,-79.42287,"Medium",3.7,25,1885.11727764665,"080","Palmerston-Little Italy","Bar","East Asian","Asian Fusion",1
"H572i_MvhPy-nEegESfzvQ","Wok Boyz","Fast Food, Chinese, Asian Fusion",43.638292,-79.41841,NA,3.7,6,878.344208198074,"163","Fort York-Liberty Village","Fast Food","East Asian","Fast Food",1
"U2fAN5cZTMKm9mvQns-VKw","PLANTA Queen Entertainment District","Asian Fusion, Sushi Bars, Vegetarian",43.650769,-79.388083,"High",4.1,205,2810.74706762899,"078","Kensington-Chinatown","Bar","East Asian","Asian Fusion",1
"7HnNtVKaYkZQ1ucInJJTmA","Roll & Bowl","Asian Fusion",43.65899,-79.44242,NA,5,1,2229.93892018415,"171","Junction-Wallace Emerson","Other","East Asian","Asian Fusion",1
"TqyG5p4KgszxsezpgDFsCw","Katsuya","Japanese, Asian Fusion",43.731431,-79.4591441,"Medium",4.8,48,10008.7140696261,"155","Downsview","Other","East Asian","Japanese",4
"LWI8ULsw0X1FpInux4Tg5Q","Martino's Pizza & Asian Fusion Kitchen","Pizza, Asian Fusion",43.675568,-79.4036442,"Medium",3.8,50,3665.35669619222,"095","Annex","Street Food","East Asian","Pizza",1
"ttuEwktrkmh3TUlSFPZqAA","Banh Mi Boys","Vietnamese, Asian Fusion",43.6571516683436,-79.3808931703301,"Low",4.1,530,3570.12246565653,"168","Downtown Yonge East","Other","East Asian","Vietnamese",3
"OC9OMsOUo7pUIeXZAaRyDQ","High Town Izakaya","Asian Fusion",43.6558223197504,-79.393726810813,NA,4,1,2565.65397353059,"078","Kensington-Chinatown","Other","East Asian","Asian Fusion",1
"7pUj3i1KjCE5jEgcqhccng","ON/OFF","Asian Fusion, Cocktail Bars",43.777683,-79.41466,"Medium",4.4,65,14715.9588841221,"151","Yonge-Doris","Bar","East Asian","Asian Fusion",1
"vQGZjrDiDBuznOkUevBNzw","Los Vietnamita Taqueria Shop","Mexican, Asian Fusion, Vietnamese",43.7054433643552,-79.3136256560683,NA,4.4,37,10988.8016503457,"054","O'Connor-Parkview","Other","East Asian","Mexican",1
"ZhACHVw9k438Z3i-Gw9BHA","Banh Mi Boys","Vietnamese, Asian Fusion",43.7092,-79.39857,"Low",4.2,130,7333.47531505779,"173","North Toronto","Other","East Asian","Vietnamese",3
"NyQey4tR7en-l24ChgYEag","Food & Liquor","Bars, Asian Fusion",43.6396914930533,-79.4418681207147,"Medium",3.9,26,1706.1736614485,"086","Roncesvalles","Bar","East Asian","Bars",1
"bLtC8xJXkd1b6MT0KjnSvw","The Captain's Boil","Seafood, Cajun/Creole, Asian Fusion",43.66237,-79.38378,"Medium",3.4,242,3615.56089786615,"169","Bay-Cloverhill","Other","East Asian","Seafood",5
"5-b5tD7VLlDwundbe85l7A","Sukhothai","Thai, Asian Fusion, Soup",43.6538304437445,-79.3544602345607,NA,3.1,59,5530.95278007522,"166","St Lawrence-East Bayfront-The Islands","Other","East Asian","Thai",1
"AakkkTuGZA2KBodKi2_u8A","Pho Phuong Vietnamese Restaurant ","Vietnamese, Asian Fusion",43.64967,-79.43513,"Medium",3.3,68,1137.60021482812,"084","Little Portugal","Other","East Asian","Vietnamese",1
"KAyQ07GqrfP1VW5MhxvEHg","Cafe Pho Nho","Vietnamese, Bars, Asian Fusion",43.65219,-79.44751,"Low",3.7,84,2172.64421348755,"086","Roncesvalles","Bar","East Asian","Vietnamese",1
"ctTiEiUTY_FvnZ0ovBeZWQ","Ho Ga Oriental Cuisine","Asian Fusion, Korean",43.64768,-79.38294,"Low",4,44,3163.20698398933,"170","Yonge-Bay Corridor","Other","East Asian","Asian Fusion",1
"tCJjzxEcTWwdqIpIvZEP-g","Yummy House","Chinese, Fast Food, Asian Fusion",43.66954,-79.3359,"Low",4.3,17,7442.50015528428,"070","South Riverdale","Fast Food","East Asian","Chinese",1
"3cAy1gxlprn1ue0q3L_ziw","Lee Chen Bistro","Dim Sum, Asian Fusion, Wine Bars",43.672372,-79.387436,"Medium",3.6,183,4096.42878142303,"098","Rosedale-Moore Park","Bar","East Asian","Dim Sum",1
"EwWXzIUdEWFT2CUJJBbGRg","Thien Tam Restaurant","Asian Fusion, Vegan, Vegetarian",43.665229,-79.466295,NA,4.3,3,4161.18365125821,"090","Junction Area","Other","East Asian","Asian Fusion",1
"a_gJI14yubijGv2fTUDv6w","Chillax Eatery & Mart","Noodles, Breakfast & Brunch, Asian Fusion",43.7584367078675,-79.4097755,NA,4.5,6,12601.0934711937,"153","Avondale","Brunch/Breakfast","East Asian","Noodles",1
"K3aA7iJGoYsJh0cl8O1w-w","Thairoomgrand - Etobicoke","Thai, Asian Fusion, Malaysian",43.6446667,-79.5329271,NA,4.7,19,8907.88305837823,"158","Islington","Other","East Asian","Thai",1
"0uEidTfcs-9GAMJXLvIYTw","Blooming Orchid","Chinese, Sushi Bars, Asian Fusion",43.70327,-79.41388,NA,4.4,29,6457.20192649908,"101","Forest Hill South","Bar","East Asian","Chinese",1
"mBe1a6rjq5d0bbWl6rRDZg","Neon Tiger","Chicken Wings, Asian Fusion, Mexican",43.67726,-79.39828,NA,4.2,6,4024.53498044335,"095","Annex","Other","East Asian","Chicken Wings",1
"1mXyISSj1oZKr25BW236aA","Makan","Asian Fusion",43.64996,-79.3891,NA,3.4,13,2708.65009145437,"164","Wellington Place","Other","East Asian","Asian Fusion",1
"e178giuAicIhb16ymOtiBg","R&D Restaurant","Asian Fusion, Chinese",43.651598,-79.397212,"High",3.6,324,2124.81432666174,"078","Kensington-Chinatown","Other","East Asian","Asian Fusion",1
"TMn3xLDiI9_y-AgTYb1gSA","The Captain's Boil","Cajun/Creole, Seafood, Asian Fusion",43.71582,-79.39989,NA,4,41,8023.80523151018,"099","Mount Pleasant East","Other","East Asian","Cajun/Creole",5
"nO3kpfkIrnoKRb4cizX0vg","Danico","Wine Bars, Asian Fusion, Italian",43.6568521843797,-79.4074500356919,NA,4.5,13,1736.38508691938,"079","University","Bar","European","Wine Bars",1
"xiJ6QkxxXkcRewctfhJneg","Coconut Grove","Pan Asian, Indian, Asian Fusion",43.7768071916995,-79.3465729055884,NA,3.8,5,15819.3054012203,"047","Don Valley Village","Other","South Asian","Pan Asian",1
"sOACp1Z6SOihe1HMzzqK5Q","Tiny Cafe","Dumplings, Asian Fusion",43.6407,-79.43815,NA,4.1,10,1391.21202843296,"086","Roncesvalles","Other","East Asian","Dumplings",1
"kR7DSZx4ufRKxFKTdhlRIg","Nozomi Fusion Kitchen","Asian Fusion, Burgers, Poke",43.7270499,-79.4312769,"Medium",4.6,28,9096.14949748558,"039","Bedford Park-Nortown","Street Food","East Asian","Asian Fusion",1
"teV3cZ_QYvDzZ8kE9dMkLA","Curry Up Annex","Asian Fusion, Thai, Noodles",43.66543,-79.40875,NA,5,1,2466.83830319318,"079","University","Other","East Asian","Asian Fusion",1
"lIEahf71RLPJ_rFBJ5fqzQ","Sala Modern Thai Kitchen & Bar","Thai, Asian Fusion",43.6819991223223,-79.3307374790311,"Medium",4.5,217,8405.7442796603,"066","Danforth","Other","East Asian","Thai",1
"Dib3cIHWyDVKDZTMm580iQ","Rolltation","Asian Fusion, Sushi Bars",43.66939,-79.3867099,"Medium",4.1,49,3912.97795501734,"169","Bay-Cloverhill","Bar","East Asian","Asian Fusion",6
"XOkqRJBS6HwTVlrCACAZFw","Queen Mother Cafe","Asian Fusion, Thai",43.6503804,-79.3891296,"Medium",3.7,319,2718.32728791956,"078","Kensington-Chinatown","Other","East Asian","Asian Fusion",1
"gVILTnDFDsVuVdxFVkRK7A","The Captain's Boil","Seafood, Cajun/Creole, Asian Fusion",43.6156501,-79.5587629,"Medium",3.8,82,11478.3054395018,"159","Etobicoke City Centre","Other","East Asian","Seafood",5
"wl_owb-SQ2LvJdmAUcXCxw","SweetLulu","Asian Fusion",43.64651,-79.40821,"Medium",3.6,9,1133.86728333227,"081","Trinity-Bellwoods","Other","East Asian","Asian Fusion",1
"1KUrEW2O4xiyzej3G_T5ng","Moegi Sushi","Japanese, Sushi Bars, Asian Fusion",43.6495978,-79.3655404,NA,4.2,10,4583.98213745455,"166","St Lawrence-East Bayfront-The Islands","Bar","East Asian","Japanese",1
"wL5yGvlL1zXZ4EPJ8d0hIA","Rolltation","Sushi Bars, Asian Fusion, Poke",43.707588,-79.398147,"Medium",4,111,7167.08464769905,"173","North Toronto","Bar","East Asian","Sushi Bars",6
"QhAmKLX_0AgQe5HLxode9Q","Nakamori","Japanese, Sushi Bars, Asian Fusion",43.73692,-79.24466,"High",4.1,123,17530.1838824494,"138","Eglinton East","Bar","East Asian","Japanese",1
"v1M2DI3sATaUkHfZEuDStw","Ka Chi","Korean, Asian Fusion",43.65379,-79.39505,"Medium",3.2,126,2372.67009884689,"078","Kensington-Chinatown","Other","East Asian","Korean",1
"W32dIFI1_rnfO3gtMZhvMw","Vege Delight","Vegetarian, Thai, Asian Fusion",43.655013,-79.3863578,NA,4.7,6,3080.81909953791,"170","Yonge-Bay Corridor","Other","East Asian","Vegetarian",1
"nc2X2BgguGvhYRAr9PLRVA","AP Restaurants","Asian Fusion, Cocktail Bars, Seafood",43.66965,-79.38874,NA,3.8,32,3807.2353993474,"169","Bay-Cloverhill","Bar","East Asian","Asian Fusion",1
"dNYl4w8LjqSiLGwXHg8o5g","Poke Eats","Hawaiian, Poke, Asian Fusion",43.669531,-79.3033394,NA,5,3,9931.24452238789,"063","The Beaches","Other","East Asian","Hawaiian",2
"j7X92HxiN2McveR-f9e3QA","Delightfully Delicious","Burmese, Asian Fusion",43.6516310117989,-79.4037291035056,NA,3,1,1638.33642651175,"078","Kensington-Chinatown","Other","East Asian","Burmese",1
"14FUj22ZaV_94L-Vov3IhQ","Dim Sum Town","Dim Sum, Asian Fusion",43.650553,-79.389063,NA,4,1,2726.98312225257,"078","Kensington-Chinatown","Other","East Asian","Dim Sum",1
"bGuxRBRKv7i1BKKfGbjxEw","Katana on Bay","Asian Fusion, Sushi Bars, Japanese",43.6503044,-79.3804595,"High",3.7,97,3403.24881427312,"170","Yonge-Bay Corridor","Bar","East Asian","Asian Fusion",1
"SZmm3wOx_fcC2rblUVewGA","New Treasure","Dim Sum, Asian Fusion",43.65554,-79.38549,"Low",3.3,72,3162.4458860837,"170","Yonge-Bay Corridor","Other","East Asian","Dim Sum",1
"Rnck2nc0j-FbolNiae2grg","Golden Asian Cuisine","Asian Fusion, Hakka",43.71138,-79.5652008,"Medium",4,39,13676.3125215233,"001","West Humber-Clairville","Other","East Asian","Asian Fusion",1
"qIx8s1bvguUgVeIqNXCu6Q","Asian Gourmet Wok & Grill","Asian Fusion",43.7156885,-79.4466917,NA,4.5,2,8169.04688679257,"031","Yorkdale-Glen Park","Other","East Asian","Asian Fusion",1
"-HwprJh-Bve1pcDH8_UFeQ","Chi Dim Sum","Asian Fusion, Tapas/Small Plates, Dim Sum",43.7106303841666,-79.3990050412378,NA,3.4,31,7482.2493675532,"173","North Toronto","Other","East Asian","Asian Fusion",1
"0HEezLfueKWLCy0Jeo6MiA","Rolltation","Fast Food, Asian Fusion",43.6612099,-79.38264,"Medium",3.3,33,3609.56923593134,"168","Downtown Yonge East","Fast Food","East Asian","Fast Food",6
"-Far2ZzTrDQaqfe_BUlaPQ","Little DaiLo","Asian Fusion, French",43.65035,-79.38378,NA,3.5,11,3125.85473180932,"170","Yonge-Bay Corridor","Other","European","Asian Fusion",1
"4wi_z5qkTbopcQgK5TCq-A","Meataa Seven Charcoal BBQ","Barbeque, Asian Fusion",43.77262,-79.4133,NA,4.2,6,14154.9263850379,"151","Yonge-Doris","Bar","East Asian","Barbeque",1
"wakI-46P1BLMnf4zdH3V2g","Westwood Grill","Dim Sum, Thai, Asian Fusion",43.65995,-79.4796,"Medium",2.7,67,4891.92268168151,"088","High Park North","Other","East Asian","Dim Sum",1
"pLj8MPkuK6OH9EtB_-6Szg","Canteen","Chinese, Asian Fusion, Noodles",43.65252,-79.39854,"Low",3.6,34,2054.52199448059,"078","Kensington-Chinatown","Other","East Asian","Chinese",1
"fh1D2eUnw5QWgDAWuCq7RQ","Baili Eatery and Lounge","Chinese, Asian Fusion",43.791347,-79.418827,NA,4,5,16224.2156362215,"036","Newtonbrook West","Other","East Asian","Chinese",1
"V_XIK99ysZ2yjc6TUiPw2Q","Lahore Chaat & Desi Burger House","Pakistani, Asian Fusion",43.6719052,-79.3246705947833,"Low",3.7,19,8380.31590361898,"065","Greenwood-Coxwell","Other","South Asian","Pakistani",1
"_F1_05YYlvePzomZ_NFijA","To-ne Sushi","Japanese, Sushi Bars, Asian Fusion",43.64877,-79.39785,"Medium",3.8,232,1994.1126925458,"078","Kensington-Chinatown","Bar","East Asian","Japanese",1
"iT5LKRiUdqvVn9FZd1NnjQ","Stratus Restaurant","Indian, American, Asian Fusion",43.64663,-79.38114,NA,5,1,3305.17623515982,"170","Yonge-Bay Corridor","Other","South Asian","Indian",1
"_fQYZ3EdogQcu7snWmJkTw","Fusion Grill","Asian Fusion",43.6514,-79.38312,"Low",4,2,3126.6129926454,"170","Yonge-Bay Corridor","Other","East Asian","Asian Fusion",1
"57_msr8gjNakjGO-1f6B_g","Angus Pho House","Vietnamese, Asian Fusion",43.7770441,-79.4146454,"Low",3.6,261,14643.0099729067,"151","Yonge-Doris","Other","East Asian","Vietnamese",1
"5nyKUHibR4GCs6ojVljFdA","Spring Sushi","Japanese, Thai, Asian Fusion",43.6566811,-79.3806534,"High",3.1,397,3557.76619470558,"168","Downtown Yonge East","Other","East Asian","Japanese",1
"C8_zdU7zGLUK3uC4e5AepQ","MeNami","Japanese, Asian Fusion",43.7778302326935,-79.4147801,"Medium",3.8,579,14729.9045859192,"151","Yonge-Doris","Other","East Asian","Japanese",1
"OS5IyYEXgYV9_Z0iS4MkOw","Yip's Kitchen","Chinese, Asian Fusion",43.6488329,-79.3715085,"Medium",4,21,4097.87188896748,"166","St Lawrence-East Bayfront-The Islands","Other","East Asian","Chinese",1
"bSz_NBYzmGMq0XUq625Jow","Crane Express","Food Trucks, Asian Fusion",43.7240469606129,-79.4716868922114,NA,4,2,9599.93674497662,"031","Yorkdale-Glen Park","Other","East Asian","Food Trucks",2
"0sUd4i07uoQrE9DVMCLOuw","Green Mango Express","Thai, Asian Fusion, Seafood",43.62227,-79.52182,"Medium",3.9,27,8421.66392145947,"159","Etobicoke City Centre","Other","East Asian","Thai",1
"nFnWpdwsDIGakU46tkK-_g","Rolltation","Salad, Poke, Asian Fusion",43.6481470272981,-79.3846555,NA,4,1,3037.59169032986,"170","Yonge-Bay Corridor","Other","East Asian","Salad",6
"B3pNBzYFqrheh4fib01vPQ","The Peoples Eatery","Korean, Asian Fusion",43.66306,-79.38631,NA,3.3,3,3489.03122526633,"169","Bay-Cloverhill","Other","East Asian","Korean",1
"wKmDYX_XuYCbIerCbYfWnQ","The Captain's Boil","Seafood, Cajun/Creole, Asian Fusion",43.7548660252231,-79.3496702260202,"Medium",3,109,13490.3571383635,"042","Banbury-Don Mills","Other","East Asian","Seafood",5
"9bC9-prBs-xp8IIi1g9Cyg","ChiChop","Taiwanese, Asian Fusion",43.7085,-79.39903,NA,3.2,6,7256.84510507907,"100","Yonge-Eglinton","Other","East Asian","Taiwanese",1
"N8gYomVaiSiss513snlxhg","Moonlight Korean Restaurant","Korean, Asian Fusion",43.7911058,-79.4452162,NA,1.8,11,16384.9694696817,"036","Newtonbrook West","Other","East Asian","Korean",1
"r5mfB_yDHbCK6kRUUTrzUQ","Yummy Delight","Asian Fusion",43.70069,-79.5171,NA,4.3,4,9790.95487235098,"113","Weston","Other","East Asian","Asian Fusion",1
"b6Rv6vwJPaMAQGuSsqPPPQ","Pho East","Vietnamese, Asian Fusion",43.665809,-79.351546,"Medium",3.3,33,6119.41782749462,"068","North Riverdale","Other","East Asian","Vietnamese",1
"d6O0I9dwf19VyEsrtXbUXw","Asian Monsoon","Asian Fusion, Thai",43.64617,-79.4083,"Medium",3,2,1122.02539909028,"162","West Queen West","Other","East Asian","Asian Fusion",1
"OQ8ttss7H4b_syk9MJRTHg","Bowl & Snacks","Asian Fusion, Sandwiches, Sushi Bars",43.660548,-79.366081,NA,3.7,3,4822.17775864311,"072","Regent Park","Bar","East Asian","Asian Fusion",1
"CDSNzkBDwWuDF5eRiJBrcA","Barrio Fiesta - The Original","Filipino, Asian Fusion",43.7060386,-79.3446241,NA,2.6,10,9085.61889083364,"055","Thorncliffe Park","Other","East Asian","Filipino",1
"XlJpvi4mSRpEk78AldsXJA","Chai","Asian Fusion",43.70581,-79.3747999,NA,4,1,7712.13835465172,"056","Leaside-Bennington","Other","East Asian","Asian Fusion",1
"tEUvjMgAqwE0OE0BIIe6Fw","Fusia Asian Kitchen","Asian Fusion",43.65621,-79.38326,"Low",1.5,16,3398.80384452471,"170","Yonge-Bay Corridor","Other","East Asian","Asian Fusion",2
"HDLhW6R6pUszuAzcmnYNYw","Vasan's Tacos","Asian Fusion, Mexican",43.765896738234,-79.2591020464897,NA,4.2,5,18741.5613948513,"156","Bendale-Glen Andrew","Other","East Asian","Asian Fusion",1
"BdGtQGhJ8rxk-5bbFl8qxQ","Sushi On Gerrard","Sushi Bars, Asian Fusion, Japanese",43.6707643711012,-79.3280821149182,NA,4,3,8078.91449138964,"070","South Riverdale","Bar","East Asian","Sushi Bars",1
"cUuDnTAya4rx5tuh7HbGyw","Mean Bao","Chinese, Asian Fusion",43.6504202641376,-79.3800179124644,NA,2.6,5,3440.37199103992,"170","Yonge-Bay Corridor","Other","East Asian","Chinese",3
"IithJLAUG3gWcHw9EKLLFA","Kim Kim Indian Hakka Chinese Restaurant","Halal, Asian Fusion",43.7535081,-79.2764809,"Low",4,90,16780.8221889381,"126","Dorset Park","Other","East Asian","Halal",1
"Dvmwg8kILj2ZIZ7xRKNt-w","Chinese Burger","Asian Fusion, Burgers",43.7759134701628,-79.4135650992393,"Medium",3.7,9,14521.3032605183,"151","Yonge-Doris","Street Food","East Asian","Asian Fusion",1
"2VtTzskzFcwVnXgGYsY1lQ","The Captain's Boil","Cajun/Creole, Seafood, Asian Fusion",43.78797,-79.2647099,"Medium",3.7,86,20275.9370023787,"128","Agincourt South-Malvern West","Other","East Asian","Cajun/Creole",5
"Cp01l4XUjd-6x-6v4KiIEg","K&B Sushi","Sushi Bars, Asian Fusion",43.62229,-79.52245,"Medium",2.7,235,8471.3942413435,"159","Etobicoke City Centre","Bar","East Asian","Sushi Bars",1
"j9YFHVQqxM_qKHIc4nck-A","Wong's Asian Cuisine","Hakka, Asian Fusion",43.7472917,-79.2838383064401,"Low",4.1,48,15873.5209655913,"126","Dorset Park","Other","East Asian","Hakka",1
"9JwJUt6C6ejrqHpCON6_9Q","Ehwa Uptown","Asian Fusion, Korean",43.76299,-79.41164,NA,4.1,22,13099.8735052696,"038","Lansing-Westgate","Other","East Asian","Asian Fusion",1
"A7glw1TI5YmoIQWoMhONpQ","Mr Thai","Thai, Asian Fusion",43.68963,-79.39444,"Medium",2.4,52,5396.51441323873,"098","Rosedale-Moore Park","Other","East Asian","Thai",1
"IJZrpASpveRG_BZAnP_z3w","Satay On the Road","Thai, Asian Fusion",43.70552,-79.37536,"Medium",2.8,44,7672.53014015996,"099","Mount Pleasant East","Other","East Asian","Thai",2
"J5ePcNjjnPiSVulu5vvrYg","Sean's Twisted","Asian Fusion",43.72376,-79.49382,NA,3.5,6,10436.5908814554,"154","Oakdale-Beverley Heights","Other","East Asian","Asian Fusion",1
"2GkDExKrdVRDfBKja5Ip0w","Mr Fish","Asian Fusion, Seafood, Chinese",43.7735385543648,-79.4136157259345,NA,3.9,17,14257.3367629832,"151","Yonge-Doris","Other","East Asian","Asian Fusion",1
"5-qLovwOO5lJeRNfIX4DXA","Pho Toronto","Vietnamese, Asian Fusion",43.7427267305074,-79.31364024,NA,4.1,23,13898.4130603127,"149","Parkwoods-O'Connor Hills","Other","East Asian","Vietnamese",1
"7Gl_h0Dz4r3xEILhe6taNA","Hakka Legend Asian Cuisine","Asian Fusion, Hakka",43.776368,-79.235003,"Medium",3.4,92,20935.5834399926,"142","Woburn North","Other","East Asian","Asian Fusion",2
"Q8-4uLtLJeXHJZZsr2Zexw","Sakura Garden","Asian Fusion, Dim Sum, Sushi Bars",43.73354,-79.41916,"Medium",3.4,62,9792.96348840538,"039","Bedford Park-Nortown","Bar","East Asian","Asian Fusion",1
"0AIBjT1efrIPOYG_dQwXpw","My Bowls","Noodles, Asian Fusion, Thai",43.71172,-79.31403,NA,5,1,11401.5242792384,"054","O'Connor-Parkview","Other","East Asian","Noodles",1
"dfDmylDjZAccgMyhYPbZaA","Satay On the Road","Thai, Chinese, Asian Fusion",43.73529,-79.4195699,"Medium",3.2,72,9989.37290933693,"039","Bedford Park-Nortown","Other","East Asian","Thai",2
"KFcr654hOzQNp2sttDLvGA","Four Seasons Restaurant","Chinese, Noodles, Asian Fusion",43.77094,-79.33187,NA,5,1,15720.3221293443,"053","Henry Farm","Other","East Asian","Chinese",1
"wIZddVqj_-i4kKEZnHYjYA","Asian Gourmet","Asian Fusion",43.7405538,-79.5849457,NA,1,1,16869.2365384755,"002","Mount Olive-Silverstone-Jamestown","Other","East Asian","Asian Fusion",1
"y745jABH5NyJYSO6fHSVUg","New York Fried Chicken & Our Kitchen","Asian Fusion",43.75362,-79.54228,NA,3.7,3,15338.797230666,"021","Humber Summit","Other","East Asian","Asian Fusion",1
"Bo9uuPiAsq_z02eb87N41g","Sushi Legend","Japanese, Sushi Bars, Asian Fusion",43.7906163405589,-79.365949574113,"High",3.6,283,16761.2054649529,"048","Hillcrest Village","Bar","East Asian","Japanese",1
"CDnHAKiBECFV3NzsFHvRmg","Mosaic Asian Kitchen & Wine Bar","Wine Bars, Asian Fusion",43.62572,-79.5043,NA,2,1,6961.08977624114,"016","Stonegate-Queensway","Bar","East Asian","Wine Bars",1
"k9gaDDBYOOdVn0dfEMSntw","Crane Express","Food Trucks, Caterers, Asian Fusion",43.76251,-79.22596,NA,4,4,20451.8193797694,"141","Golfdale-Cedarbrae-Woburn","Other","East Asian","Food Trucks",2
"KK7H1bVOMAJnDqMhBv2zpA","Chung Moi Chinese Restaurant","Hakka, Asian Fusion",43.7324399,-79.26944,"Medium",3.9,70,15640.2686003646,"125","Ionview","Other","East Asian","Hakka",1
"uZPkEebO_SSMNWPtbv2LbQ","Macho Fried Rice","Asian Fusion, Fast Food, Chinese",43.77552,-79.41521,NA,3,1,14474.5875569019,"037","Willowdale West","Fast Food","East Asian","Asian Fusion",1
"lDxPbWmbvTO-_n0qOc4aog","Top Food Asian Cuisine","Chinese, Asian Fusion, Fast Food",43.7578188823689,-79.5195837691426,NA,3,1,14741.6788272096,"024","Black Creek","Fast Food","East Asian","Chinese",1
"Om6lrGh8jjgYgLox1dNSFQ","Teriyaki Experience","Japanese, Soup, Asian Fusion",43.7831718791171,-79.252817225959,NA,3.8,6,20489.7786848211,"128","Agincourt South-Malvern West","Other","East Asian","Japanese",2
"7vGOZDl_e4dxjARcPJWBdQ","Asian Fusion","Asian Fusion, Chinese, Fast Food",43.782483,-79.292371,"Low",4,2,18633.5195697333,"118","Tam O'Shanter-Sullivan","Fast Food","East Asian","Asian Fusion",1
"n8KvwllRpwzFElFT7V4E5g","Japanese Take-out","Japanese, Sushi Bars, Asian Fusion",43.7505410592697,-79.4792519652071,NA,3,2,12550.6027450022,"155","Downsview","Bar","East Asian","Japanese",1
"HIlocHRZaMUucOFK-cxukg","Simply Kitchen","Asian Fusion",43.7810258,-79.2474109,NA,3.7,3,20596.8091985793,"142","Woburn North","Other","East Asian","Asian Fusion",1
"emyCP3Ry2SbpNrwRAtm9PQ","Pyung Won House","Korean, Asian Fusion, Hot Pot",43.77941,-79.415798,"Medium",2.5,83,14902.362324726,"037","Willowdale West","Other","East Asian","Korean",1
"5hVb9c7DyE8XnDafTvANSw","Fusia Asian Kitchen","Asian Fusion",43.7229996,-79.3007813,NA,2.5,2,13025.4332938692,"120","Clairlea-Birchmount","Other","East Asian","Asian Fusion",2
"aP7PXEwTtkc37VQau-B9VA","Street Kitchen by Basil Box","Vietnamese, Thai, Asian Fusion",43.7624,-79.41077,NA,3.5,2,13012.8736429511,"151","Yonge-Doris","Other","East Asian","Vietnamese",1
"gbBkhe4bwbmutGcopNRbCg","Bancan Kitchen","Indian, Bangladeshi",43.7134365916899,-79.3666625,NA,5,1,8779.60396971124,"056","Leaside-Bennington","Other","South Asian","Indian",1
"I9XqZhIwBSWecIewm4p49Q","ADDA Bengali Kitchen and Catering","Bangladeshi, Indian",43.69397,-79.27756,NA,4.5,21,12828.1828677352,"121","Oakridge","Other","South Asian","Bangladeshi",1
"RqGgU05tgsC-OJnSae_BsA","Adi Bikrampur Sweets & Fast Food","Bangladeshi",43.6907837577891,-79.290941858898,NA,1,1,11700.0881784016,"061","Taylor-Massey","Other","South Asian","Bangladeshi",1
"hWJfHDl4tUccBO7DuHU3RA","BBQ Chicken Factory","Barbeque, Indian, Bangladeshi",43.6683388070972,-79.3694382456155,NA,4,2,4949.77820641349,"071","Cabbagetown-South St.James Town","Bar","South Asian","Barbeque",1
"lwAH4_ETwYIKoWG4ffmghw","Bhabi's Bhorta","Bangladeshi, Indian, Breakfast & Brunch",43.7468749247892,-79.2316342145205,NA,5,1,19024.3294707972,"138","Eglinton East","Brunch/Breakfast","South Asian","Bangladeshi",1
"CL1wZ2PuzUXG6PzjRZQICw","Ghoroaa Restaurant","Halal, Bangladeshi",43.69072,-79.29136,"Low",3.6,25,11663.3970347553,"061","Taylor-Massey","Other","South Asian","Halal",1
"ktf_QNZaJ1IvnXrncZCQqw","Indian Biriyani House","Indian, Halal, Bangladeshi",43.65497,-79.38648,"Low",2.6,78,3061.00207439531,"170","Yonge-Bay Corridor","Other","South Asian","Indian",1
"6PGwx1k8l8l7rF00xlW_sQ","Dhaka kitchen","Bangladeshi",43.7050618,-79.2885483,NA,4,1,12629.4750340316,"120","Clairlea-Birchmount","Other","South Asian","Bangladeshi",1
"AB8iyTHUEC7WCsoKWv49aQ","Masala King","Indian, Bangladeshi",43.70549,-79.25228,NA,4.1,10,15206.3529155521,"122","Birchcliffe-Cliffside","Other","South Asian","Indian",1
"4jwyHk6tS7IuHLYP80E_Ww","Azmi Shawarma & Biryani","Bangladeshi",43.6906752947667,-79.2911487887521,NA,4.5,2,11679.8820194594,"061","Taylor-Massey","Other","South Asian","Bangladeshi",1
"LsQLGpis4hTqusAsqE28YQ","Dhaka Biryani House","Bangladeshi, Indian",43.69234,-79.28247,NA,2.8,4,12387.3556555796,"121","Oakridge","Other","South Asian","Bangladeshi",1
"D9IvgZeBD2qFfhIRbOcBFQ","Cafe D Taj","Bangladeshi",43.69397,-79.2775599,"Medium",4,15,12828.1828677352,"121","Oakridge","Other","South Asian","Bangladeshi",1
"XE1DgD6as8UHpmz0XK45qg","Premium Sweets","Indian, Bangladeshi, Breakfast & Brunch",43.7224684256342,-79.2889939299142,NA,3.7,46,13714.2790805528,"120","Clairlea-Birchmount","Brunch/Breakfast","South Asian","Indian",2
"L_QLIazGQUSJt6oEU_ZGMQ","Ruposhi Bangla Restaurant","Venues & Event Spaces, Halal, Bangladeshi",43.752476,-79.26217,NA,4,4,17515.8104822406,"156","Bendale-Glen Andrew","Other","South Asian","Venues & Event Spaces",1
"awpWHkiAHA5udxDwV7d7Zg","Adi Biryani & Kabab House","Bangladeshi",43.7072792,-79.2695618,NA,3.5,4,14114.1192392332,"120","Clairlea-Birchmount","Other","South Asian","Bangladeshi",1
"iH-B_gXXZbnSiV48uyjjfA","Makkah Restaurant","Pakistani, Indian, Bangladeshi",43.6906019402392,-79.2918705940247,NA,4,2,11623.9853744908,"061","Taylor-Massey","Other","South Asian","Pakistani",1
"9pp4WAPcvgwA_3FsHmMXBA","Chawk Bazar South Asian Eatery","Indian, Pakistani, Bangladeshi",43.74264,-79.3083599,"Medium",3.5,55,14174.1375456647,"119","Wexford/Maryvale","Other","South Asian","Indian",1
"GzmCPRr0sZHtkbYunG8WtA","Ghoroaa Classic","Bangladeshi",43.69444,-79.27537,NA,2.4,5,13006.3406477765,"121","Oakridge","Other","South Asian","Bangladeshi",1
"wJaT_knXpP549fO0VIvsCw","Al-Mani Grill and Biryani","Indian, Bangladeshi",43.6889,-79.2995,NA,2.4,8,10989.1541247213,"062","East End-Danforth","Other","South Asian","Indian",1
"LG57WrTcnPeuTy6aJy3IYw","Premium Sweets","Desserts, Bangladeshi",43.7435481,-79.2177143,"Medium",2.6,5,19730.2323137161,"139","Scarborough Village","Cafe/Bakery","South Asian","Desserts",2
"RyDiwx4xD3Lx8sWHx1aFlQ","Smoque N' Bones","Barbeque, American, Southern",43.6457027819391,-79.4107432752393,"Medium",3.8,439,924.293636554646,"162","West Queen West","Bar","North American","Barbeque",2
"N0dQQLb4R0ACN-bacCQTKg","Favorites","Salad, Barbeque, Thai",43.6473606954857,-79.4201145725201,NA,4.1,50,270.2748731167,"081","Trinity-Bellwoods","Bar","East Asian","Salad",1
"TqMTY6xTHThm0C7J1pJ7Aw","Pig Out BBQ","Barbeque, American, Sandwiches",43.66317,-79.40253,"Medium",4,112,2525.90531484049,"079","University","Bar","North American","Barbeque",1
"QA30Lo1NlV8SjnkmEkd1-A","Daldongnae Korean BBQ - Christie","Korean, Barbeque",43.664348,-79.415688,"High",4.4,116,2163.43349919448,"095","Annex","Bar","East Asian","Korean",1
"nrUoS2wgmJ1LSkFfSlOjvg","Bonimi","Cafes, Modern European, Barbeque",43.64513,-79.52041,"Medium",4.5,51,7907.10214147993,"016","Stonegate-Queensway","Cafe/Bakery","European","Cafes",1
"mbREJnVy5_PnMwulZV7aiQ","Daldongnae Korean BBQ - Kensington Market","Korean, Barbeque",43.65551,-79.398598,NA,5,2,2190.90418917649,"078","Kensington-Chinatown","Bar","East Asian","Korean",1
"RXKFjyJ3X7_WCl5KC4lDhw","Daldongnae Korean BBQ - Dundas Square","Korean, Barbeque",43.658244,-79.381345,NA,4.3,56,3570.6029401757,"168","Downtown Yonge East","Bar","East Asian","Korean",1
"OZfhA7YFdXpuec9delNGpg","A BBQ House","Barbeque",43.66709,-79.385695,NA,4.8,6,3796.60832167384,"169","Bay-Cloverhill","Bar","Other","Barbeque",1
"2Wg3jjooo6e7oN9WVw9ZQA","Turquoise Grill House","Turkish, Salad, Barbeque",43.6477823161256,-79.3967587148284,NA,5,2,2065.20225827756,"164","Wellington Place","Bar","Middle Eastern","Turkish",1
"qR4EIktJfQKc4rnKgBzvtw","Gyubee Japanese Grill - Bloor","Barbeque, Japanese",43.66716,-79.40047,"High",4.2,353,2970.5402306689,"079","University","Bar","East Asian","Barbeque",1
"vvapae5E4fnZXWG8Wylzyw","Gyubee Japanese Grill - Dundas","Japanese, Barbeque",43.6551427,-79.3857634,"High",4.2,262,3121.87707637384,"170","Yonge-Bay Corridor","Bar","East Asian","Japanese",1
"wSojc-y-d7MWiGWdy8deCg","Barque Smokehouse","Barbeque, Smokehouse",43.6480097,-79.4496592,"Medium",3.9,553,2225.31024113165,"086","Roncesvalles","Bar","Other","Barbeque",1
"8JuuD6-O8Q06J8ekzOGcJg","Cherry Street","Barbeque, Chicken Wings, Cocktail Bars",43.6504328556375,-79.3894104,NA,5,1,2697.38442746181,"078","Kensington-Chinatown","Bar","Other","Barbeque",1
"QX5Y_BIxlMG3B3vV1zx1Gw","Cherry Street BBQ","Barbeque",43.6456,-79.35229,"Medium",3.9,221,5626.64359633405,"070","South Riverdale","Bar","Other","Barbeque",1
"FvjimdPd4hMEcjWIimsbgA","Good Brothers BBQ","Chinese, Barbeque",43.6532693562806,-79.3969745587187,NA,4.3,19,2209.02355482968,"078","Kensington-Chinatown","Bar","East Asian","Chinese",1
"FhZaBOpSqf0pQmsEYxUPyg","Zakkushi on Queen West","Japanese, Tapas/Small Plates, Barbeque",43.647115,-79.405517,"High",4.4,63,1356.98780790367,"081","Trinity-Bellwoods","Bar","East Asian","Japanese",1
"Id8VDaRh5f4Wf3mLy2AHdQ","Chao Lay","Thai, Seafood, Barbeque",43.680425,-79.430647,NA,5,1,3945.98506393749,"094","Wychwood","Bar","East Asian","Thai",1
"X7R84JGGwrpEqm9h2rOXdA","Hello Cupbop","Korean, Barbeque, Fast Food",43.6538385319017,-79.3951393291354,NA,4.5,6,2369.66481163894,"078","Kensington-Chinatown","Bar","East Asian","Korean",1
"ct1BldgnOvR_iF8fVLD6hA","Smoque N' Bones","Barbeque, Southern, American",43.6561129204886,-79.3937432393432,NA,4,24,2579.13371380208,"078","Kensington-Chinatown","Bar","North American","Barbeque",2
"dg5hk2uYsxrcLs7St66C_A","Mapo Korean BBQ","Barbeque, Korean",43.6639221406138,-79.4177539,"Medium",4.1,79,2083.05984124938,"095","Annex","Bar","East Asian","Barbeque",1
"6mUidMn4-TEj3_-LD3lsSQ","St. Matthew's BBQ Chicken","Portuguese, Barbeque",43.68209,-79.46899,"Medium",4.4,33,5545.25308032641,"110","Keelesdale-Eglinton West","Bar","European","Portuguese",1
"4BPxSdtChFilKRjbDR-k9Q","The Backyard Smokehouse","Barbeque, Burgers, Smokehouse",43.6750778706599,-79.4067638772985,NA,3.7,26,3519.34150323927,"095","Annex","Bar","Other","Barbeque",1
"WsrsfgYl-Rrz6D2zBNCn_w","Taisho Japanese Grill","Japanese, Barbeque",43.6559052477579,-79.3931938253142,NA,4.1,40,2608.1367370432,"078","Kensington-Chinatown","Bar","East Asian","Japanese",1
"fQwB9Z98YEhkJit7c3z51A","The Carbon Bar","Barbeque, Bars, American",43.653088,-79.374829,"High",3.9,440,3905.53737828438,"168","Downtown Yonge East","Bar","North American","Barbeque",2
"MHRv_rT0JBjIoWB-CcGMCg","Mapo Pocha Soju Bar","Korean, Bars, Barbeque",43.6640448,-79.4167613602252,NA,4.5,8,2111.6641951266,"095","Annex","Bar","East Asian","Korean",1
"QrUNtCTca7HbF_t82xs8Ig","Thong Lor","Thai, Bars, Barbeque",43.6670164571294,-79.381284378469,NA,5,3,4072.89276208974,"167","Church-Wellesley","Bar","East Asian","Thai",1
"oe3r-qGi4BgqW1LmPFOoEQ","Koha Pacific Kitchen","Barbeque, Korean, Fast Food",43.6491727241215,-79.3794612863824,NA,4,1,3465.42051376981,"170","Yonge-Bay Corridor","Bar","East Asian","Barbeque",3
"QABMhiuARzojyPYCATc2Pw","Dukes Refresher","American, Bars, Barbeque",43.648542,-79.372899,"Medium",4.3,18,3982.76252985557,"166","St Lawrence-East Bayfront-The Islands","Bar","North American","American",1
"8VHLeEC7kH6nwn1HnqwMKQ","Dang Smoke BBQ","Food Trucks, Barbeque",43.6617164611816,-79.3908462524414,"Low",4.8,12,3230.68280172305,"169","Bay-Cloverhill","Bar","Other","Food Trucks",1
"xDmVyd_xl0Hsf3hFmYwrHg","Beach Hill Smokehouse","Barbeque, Desserts, Sandwiches",43.68409,-79.3005,"Medium",4.3,164,10699.255870156,"062","East End-Danforth","Cafe/Bakery","Other","Barbeque",3
"DLkaSKMoeeQO-_1C_lzh2A","Bairrada Churrasqueira Grill","Portuguese, Barbeque, Seafood",43.65329,-79.42868,"Medium",3.2,135,1013.87138876714,"083","Dufferin Grove","Bar","European","Portuguese",2
"dfqLhdQY9e6EiXMk9t-8WQ","Martins Churrasqueira","Barbeque, Portuguese, Desserts",43.6665079966188,-79.497883,NA,3.6,17,6520.60742954756,"111","Rockcliffe-Smythe","Cafe/Bakery","European","Barbeque",1
"InS3fIio8ktbWUhgO3ZuIw","Beach Hill Smokehouse","Barbeque, Sandwiches, Smokehouse",43.6515982309058,-79.4749065842065,NA,4.5,14,4293.06069285864,"088","High Park North","Bar","Other","Barbeque",3
"gvM3YlaP8HWenylTkGFYUw","Toronto Island BBQ & Beer","Venues & Event Spaces, Barbeque, Cocktail Bars",43.6233516,-79.3786292,"Medium",2.7,52,4284.7624438075,"166","St Lawrence-East Bayfront-The Islands","Bar","Other","Venues & Event Spaces",1
"tX6kAoxMCJjLU5BikGpUdA","Stop BBQ Chicken","Portuguese, Brazilian, Barbeque",43.66585,-79.43811,"Low",4.1,16,2601.46557171249,"171","Junction-Wallace Emerson","Bar","European","Portuguese",1
"m4veInBYwqlm49Hbj5rE6g","Mr Yes Noodlebar","Chinese, Barbeque, Noodles",43.6573187287276,-79.4002665,NA,3.3,4,2203.90591749916,"078","Kensington-Chinatown","Bar","East Asian","Chinese",1
"CY3N_T_35gqOXkwQbSeSTA","Hong Fatt B-B-Q","Barbeque, Chinese",43.6532,-79.39585,"Low",3.9,65,2288.25031816227,"078","Kensington-Chinatown","Bar","East Asian","Barbeque",1
"3M-CRaV76ED9qz2_nDyz6w","Levande Bakery & BBQ","Bakeries, Barbeque",43.6798193798121,-79.3417049265519,NA,5,2,7519.40098061574,"066","Danforth","Cafe/Bakery","Other","Bakeries",1
"vE0XJhAJcDpPW3ywTPYscg","Tiger's Cup Bap","Korean, Barbeque",43.6474539883775,-79.3782790043327,NA,4,2,3542.9298927968,"170","Yonge-Bay Corridor","Bar","East Asian","Korean",1
"NOIXp-AUbEGN-3mgtDGITA","Havana Sanguich","Colombian, Sandwiches, Barbeque",43.6500663,-79.3913874,NA,4.6,16,2533.35910539122,"078","Kensington-Chinatown","Bar","Latin American","Colombian",1
"xdcUdYGDb0oGZvRamlUyxw","New Lanzhou Noodle Restaurant","Noodles, Barbeque",43.6557856913438,-79.3937187641859,NA,4,4,2564.40887086138,"078","Kensington-Chinatown","Bar","Other","Noodles",1
"E3fK-R2ShkZc6tIta_3pbw","Rui's  BBQ","Portuguese, Barbeque",43.6826,-79.46472,"Low",4.2,17,5360.26875567947,"110","Keelesdale-Eglinton West","Bar","European","Portuguese",1
"j8bZqp-LVDLd19zIW3HaBA","Alpha’s Shawarma","Middle Eastern, Barbeque, Mediterranean",43.6473362,-79.404599,NA,4.5,30,1434.1560851269,"081","Trinity-Bellwoods","Bar","Mediterranean","Middle Eastern",1
"gWainRDwQaDg7YRZAaotdw","Kasai Grill House","Korean, Barbeque, Sushi Bars",43.65532,-79.41615,"Medium",3.6,80,1198.44812231252,"080","Palmerston-Little Italy","Bar","East Asian","Korean",1
"a_2yshMTGJIBRvSrQJzl0A","Dave's Genuine Deli","Barbeque, Delis, Poutineries",43.6471980613827,-79.3994129446029,NA,3.3,4,1845.60976805373,"164","Wellington Place","Bar","Other","Barbeque",1
"kmTPecVJV-1aEP1rapNDGw","Churrasqueira Martins","Portuguese, Barbeque, Seafood",43.680761,-79.473499,"Medium",3.5,87,5692.93300613893,"110","Keelesdale-Eglinton West","Bar","European","Portuguese",1
"_E5YdG5i8Vf-FFRggQrv_g","The Bull BBQ Pit","Barbeque, Sports Bars, Breakfast & Brunch",43.6655755516306,-79.4624973388994,NA,5,1,3936.29215390972,"090","Junction Area","Bar","Other","Barbeque",2
"NsYGSuyIhl5e7E12N5QXJA","Omiwol","Korean, Barbeque, Noodles",43.7709,-79.33207,NA,4.5,12,15718.0432257481,"053","Henry Farm","Bar","East Asian","Korean",1
"ALkOqlWODyxPg5VSp0HLrg","Zakkushi On Carlton","Japanese, Tapas/Small Plates, Barbeque",43.66343,-79.37062,"High",4,352,4606.0571133018,"073","Moss Park","Bar","East Asian","Japanese",1
"Ae_emurrfSSfgiPCaJ-uMw","The Butcher’s BBQ","Burgers, Barbeque, Sandwiches",43.65161896,-79.38359833,NA,5,1,5084.51166585883,"170","Yonge-Bay Corridor","Bar","Other","Burgers",1
"G7lpRqDIIKiDoHCu-UPNDA","Honestly Good","Fast Food, Chicken Shop, Barbeque",43.6117498085079,-79.5574985,NA,4.5,6,11515.0861469931,"159","Etobicoke City Centre","Bar","Other","Fast Food",1
"WdB_1TDZanjfBcT2Xj5Ljg","Boo Radley's Junction Bar and Grill","Bars, Barbeque",43.66614,-79.45028,"Medium",3.4,50,3215.31980972784,"171","Junction-Wallace Emerson","Bar","Other","Bars",1
"AR-ewpzqQnx0NYxZo72Wow","Mix2 Grill & Hot Pot","Hot Pot, Barbeque",43.65375,-79.39568,NA,3.7,43,2318.92889878274,"078","Kensington-Chinatown","Bar","Other","Hot Pot",1
"OllK5_S-7svgSwbUfx1xYA","King's Noodle Restaurant","Chinese, Barbeque, Noodles",43.6531,-79.3985,"Medium",3.3,465,2086.16145023867,"078","Kensington-Chinatown","Bar","East Asian","Chinese",1
"A1t8v4bWahSC4TrVTiy1XA","Benny’s Barbecue","Barbeque, Smokehouse, Sandwiches",43.7104385970068,-79.3989319102005,NA,4.1,28,7463.07520356578,"173","North Toronto","Bar","Other","Barbeque",1
"7EZGYd_9PXWfRu04-vzKKA","Pita Land","Middle Eastern, Barbeque",43.66528,-79.40358,"Medium",4.5,15,2671.14641950381,"079","University","Bar","Middle Eastern","Middle Eastern",12
"UWUP5urWlEuZKb1YMshiSg","Lee Yakiniku","Barbeque, Bars, Japanese",43.773455,-79.414284,NA,3.3,27,14244.1049616571,"037","Willowdale West","Bar","East Asian","Barbeque",1
"2Q89PhkcyT9uZnQORmqMKg","House of Gourmet","Seafood, Noodles, Barbeque",43.65336,-79.39718,"Medium",3.5,470,2195.4428844974,"078","Kensington-Chinatown","Bar","Other","Seafood",1
"fiLcl_-nQAq0LSGdviznJA","Long Time No See","Barbeque, Pubs, Chinese",43.65318,-79.39524,"Medium",3.2,21,2334.21940553069,"078","Kensington-Chinatown","Bar","East Asian","Barbeque",1
"o6QjaJh73eOSWu7wwc8k_g","Zao Bar And Grill","Chinese, Bistros, Barbeque",43.65318,-79.39524,NA,4.3,3,2334.22345814083,"078","Kensington-Chinatown","Bar","East Asian","Chinese",1
"ZGtv3ROGb2TqZil9Ptek3A","Churrasco of St Lawrence","Barbeque, Sandwiches",43.6490099,-79.37184,"Low",3.9,45,4081.64658609712,"166","St Lawrence-East Bayfront-The Islands","Bar","Other","Barbeque",1
"6myiNQJCjU-QnUVL7T4SoQ","Cowboys Grill","Barbeque, Burgers, Sandwiches",43.70021,-79.46856,NA,5,2,7175.53621957726,"030","Brookhaven-Amesbury","Bar","Other","Barbeque",1
"0LkgwaTMvYaU2V0JDRNOjQ","Scotty Bons Caribbean Grill","Caribbean, Barbeque, Halal",43.6225455993286,-79.5213967268691,NA,4.3,10,8378.32309433522,"159","Etobicoke City Centre","Bar","Latin American","Caribbean",3
"Sc4pUTYgI7FQb1i8aa0csg","Churrasco of St Clair","Portuguese, Barbeque",43.68155,-79.42527,"Medium",3.4,50,4019.61088164117,"094","Wychwood","Bar","European","Portuguese",1
"6hkHrWb82XfJdZ-SJmCKCg","Wok & Roast Chinese BBQ","Chinese, Barbeque",43.66505,-79.35218,"Low",3.4,111,6044.61774845514,"070","South Riverdale","Bar","East Asian","Chinese",1
"9baxxLTKt6gBlqBjY4AUNg","Smokeshow BBQ & Brew","Barbeque",43.7071776,-79.3900127,NA,2.4,21,7333.99993023741,"174","South Eglinton-Davisville","Bar","Other","Barbeque",1
"0JCXUSE0f0SExGnVWuQWbQ","Flame & Smoke","Barbeque, Sandwiches, Soul Food",43.6515921,-79.4040568,NA,3.3,3,1612.59263527291,"078","Kensington-Chinatown","Bar","Other","Barbeque",1
"MhRpSowt0btjV4mUplTQ6g","Greelz","Burgers, Barbeque, Fast Food",43.69024,-79.49899,NA,5,1,7932.2633412807,"115","Mount Dennis","Bar","Other","Burgers",1
"Rex5_2j_ao7XF9wx8nT7rA","Bbq Chicken and Pub","Chicken Wings, Barbeque, Salad",43.677933263403,-79.3491759896278,NA,4.6,7,6896.40325366287,"068","North Riverdale","Bar","Other","Chicken Wings",1
"rqHnv41IbKEqGEFdrLexOw","Chuck's Roadhouse","Barbeque, Sports Bars, Burgers",43.6500349,-79.6041711,NA,5,1,14648.1381700786,"011","Eringate-Centennial-West Deane","Bar","Other","Barbeque",1
"d2kxPBKkJXG1LQz-Z_8vsQ","Pang‘s BBQ","Chinese, Barbeque",43.7792263439169,-79.4173607932543,NA,4,1,14878.1220835271,"037","Willowdale West","Bar","East Asian","Chinese",1
"tGBeFfwXCUZOsb0YWiMWIA","Ka Chi Korean Restaurant","Korean, Barbeque, Soup",43.65447,-79.39933,"Low",3.7,160,2092.85156117272,"078","Kensington-Chinatown","Bar","East Asian","Korean",1
"EKeck5myBgPqy2ShyGEjHw","AAA Bar","Barbeque, Dive Bars, Chicken Wings",43.65178,-79.37272,"Medium",3.5,127,4034.1570119257,"168","Downtown Yonge East","Bar","Other","Barbeque",1
"nktQ_aBRp5CmVOkXR0Mz1g","Arisu Korean BBQ & Sushi","Japanese, Korean, Barbeque",43.6651,-79.41265,"Medium",3.4,238,2311.59787791297,"095","Annex","Bar","East Asian","Japanese",1
"9LimxWLM3URfrCcQsUJ3yg","Breakwall BBQ","Barbeque, Sports Bars, American",43.6693242,-79.304498,"Medium",4.1,71,9835.30572424201,"063","The Beaches","Bar","North American","Barbeque",1
"08eeGaILD8rg93S1x-p-ow","Lung Tung Bbq Food","Barbeque",43.78537,-79.27748,"Low",4.3,23,19350.52539905,"128","Agincourt South-Malvern West","Bar","Other","Barbeque",1
"_uozYXJl42wCax5HG5kU0Q","Rodeo Brazilian Steakhouse","Steakhouses, Barbeque",43.6762554,-79.3581314,"High",3.1,106,6188.82973139224,"068","North Riverdale","Bar","Other","Steakhouses",1
"-4uT6QFVaRtc2Zmxvtd9Vg","BBQ Express","Fast Food, Barbeque",43.6703239574042,-79.3906814977527,NA,4.5,15,3751.95186745822,"095","Annex","Bar","Other","Fast Food",1
"35NxfCGKzkuy224xYYrSPA","Aragoz","Egyptian, Barbeque, Seafood",43.7383249961754,-79.2183214053512,NA,4.5,13,19374.5292943616,"139","Scarborough Village","Bar","Middle Eastern","Egyptian",1
"lxnhCO-lBalLySOGiyfgWQ","Yummy Wok N Bbq House","Barbeque",43.75623,-79.51813,"Low",4,17,14545.1963016855,"025","Glenfield-Jane Heights","Bar","Other","Barbeque",1
"mlTrhDLyVCzgyvtHQyYkuw","Some Time BBQ Grill Restaurant & L.L.B.O.","Chinese, Barbeque",43.65578,-79.39366,NA,2.8,4,2565.62136779122,"078","Kensington-Chinatown","Bar","East Asian","Chinese",1
"mvFnzvEJ13eDRunRUJIqEw","Mr Corn","Food Trucks, Barbeque, Burgers",43.6525485,-79.3835118,NA,5,1,3212.78237935108,"170","Yonge-Bay Corridor","Bar","Other","Food Trucks",1
"yhDAzBBjFujZbHwBPfE2eQ","Daldongnae Korean BBQ - Empress","Korean, Bars, Barbeque",43.770782,-79.41295,"High",4,128,13953.3784678708,"151","Yonge-Doris","Bar","East Asian","Korean",1
"vLg-vz5lVDrxCDafWEGbfA","Shinta Japanese BBQ","Japanese, Barbeque",43.76828,-79.41223,"High",4.1,91,13725.7449007017,"151","Yonge-Doris","Bar","East Asian","Japanese",1
"q3B9eQioU-kYW7DHhHoKJA","Tahanan Filipino Cuisine","Filipino, Barbeque, Breakfast & Brunch",43.746793,-79.436714,NA,5,1,11330.6068958822,"033","Clanton Park","Bar","East Asian","Filipino",1
"kyo4ePnymGR2wC-rEKTtwQ","KS² The Halal Steak House","Steakhouses, Barbeque, Halal",43.7157260439219,-79.2593867,NA,4.6,5,15248.1216026478,"120","Clairlea-Birchmount","Bar","Other","Steakhouses",1
"XhJWPRqwVCZKr7vieCKX6g","George's BBQ Chicken","Barbeque",43.6898583,-79.349139428836,"Medium",2.7,31,7675.89422270709,"057","Broadview North","Bar","Other","Barbeque",1
"oMgDbkk0hlPYFUmwAOVjgQ","Leslieville Pumps","Sandwiches, Convenience Stores, Barbeque",43.6606164337603,-79.3414839601572,"Medium",3.7,128,6710.71933878168,"070","South Riverdale","Bar","Other","Sandwiches",1
"ApDZtcwf021n98tE3jSfsA","Joey Turks Island Grill","Caribbean, Sandwiches, Barbeque",43.726617,-79.2938817,NA,3.7,3,13708.3553673649,"119","Wexford/Maryvale","Bar","Latin American","Caribbean",1
"_rIZa2kEjzGEM6UgOJ-vhw","Pimento Jerk Food Truck","Food Trucks, Barbeque",43.6487,-79.38545,NA,4.5,6,3257.44847100239,"170","Yonge-Bay Corridor","Bar","Other","Food Trucks",1
"9pS_dM96NEfYJG75OFKzFQ","BBQ Chicken","Korean, Barbeque, Chicken Shop",43.772094,-79.3453689292073,NA,4,5,15375.5297060632,"053","Henry Farm","Bar","East Asian","Korean",4
"C-BBWjzcytDi9qG9ozgVCw","Armenian Bistro","Modern European, Barbeque, Comfort Food",43.63206,-79.54431,NA,4.4,10,9903.48939383756,"159","Etobicoke City Centre","Bar","European","Modern European",1
"7t1mdOPFsbW8-AxTTL8ZtQ","Winner BBQ Chinese Cuisine DT","Chinese, Barbeque, Chicken Shop",43.65931,-79.38256,NA,4.5,2,3536.74105564859,"170","Yonge-Bay Corridor","Bar","East Asian","Chinese",1
"oo73pe5tERpDxaa_eSY2tQ","Iqbal Kebab & Sweet Centre","Pakistani, Barbeque, Seafood",43.70659,-79.35144,"Medium",3.7,56,8840.27371431698,"055","Thorncliffe Park","Bar","South Asian","Pakistani",1
"2RAtTdgsnw_fax8yW9wg2w","Lavrador Bbq","Barbeque",43.69346,-79.46142,NA,5,1,6187.89740626803,"108","Briar Hill-Belgravia","Bar","Other","Barbeque",1
"WRJOwG8VCuG2wxw5wwPIZQ","Paulo Sardinha BBQ Chicken","Chicken Shop, Portuguese, Barbeque",43.6684563313692,-79.4865791872144,NA,3.7,6,5773.64314086393,"111","Rockcliffe-Smythe","Bar","European","Chicken Shop",1
"4_L9bnIvY8TLDfiTBGcnRA","Daldongnae Korean BBQ - Cummer","Korean, Barbeque",43.789726,-79.418312,"High",4.2,382,16039.2207908855,"036","Newtonbrook West","Bar","East Asian","Korean",1
"Hoh9KQeNrkc4dZ8ru59rgw","The Bull BBQ Pit","Barbeque, Burgers, Sandwiches",43.67786,-79.44459,NA,2.4,11,4029.12313970101,"092","Corso Italia-Davenport","Bar","Other","Barbeque",2
"DyC8NKdf3KnOonLHrAHu4g","The Carbon Bar BBQ Kitchen Hub","Barbeque",43.6235057840627,-79.512260333166,NA,2,1,7644.27486582694,"016","Stonegate-Queensway","Bar","Other","Barbeque",1
"-LKP1w7XPYMGhgjlm6s41w","BBQ Chicken","Korean, Barbeque",43.71028,-79.3988,NA,4.1,10,7459.86174282643,"173","North Toronto","Bar","East Asian","Korean",4
"5c_yZibvEyzcMzOFfU6A9Q","Horno BBQ","Barbeque",43.6550713,-79.401947,NA,3.3,3,1930.06397890815,"078","Kensington-Chinatown","Bar","Other","Barbeque",1
"0M_YRQtXT9bv973b5K9qjw","Churrasqueira Andrade","Portuguese, Barbeque, Seafood",43.6685450940309,-79.4865979626775,NA,3,2,5779.36920470746,"111","Rockcliffe-Smythe","Bar","European","Portuguese",1
"whmHqZTdCrP9h1uBZ6MbfA","Gui Gui","Kebab, Korean, Barbeque",43.7874216393039,-79.4172048568726,NA,3.7,45,15789.4143780442,"050","Newtonbrook East","Bar","East Asian","Kebab",1
"-1GLB6sO-XOGt_rvHg2P6Q","Shah Abbas","Persian/Iranian, Barbeque, Middle Eastern",43.68734,-79.39399,NA,3.3,6,5179.14466697136,"097","Yonge-St.Clair","Bar","Middle Eastern","Persian/Iranian",1
"_81fRJ9m8Fn1s8ixPun46A","Union Social Eatery","Gastropubs, Burgers, Barbeque",43.7639042110806,-79.4111878640642,"Medium",3.7,279,13199.0978291421,"151","Yonge-Doris","Bar","Other","Gastropubs",2
"1-T7IiQ37VwEuvVFKhhqGg","Chainsmoker","Barbeque, Halal, Sandwiches",43.65003,-79.6035,NA,3.6,26,14648.1370507677,"011","Eringate-Centennial-West Deane","Bar","Other","Barbeque",1
"McaRYgVwOCmtWkKxNsXlZg","Royal Meats Bar/Beque","Barbeque, Bars, Comfort Food",43.62558,-79.52893,"Medium",3.6,132,8899.21624470912,"159","Etobicoke City Centre","Bar","Other","Barbeque",1
"VxeZoQDFaYO4Ng8WT2S4Kg","Yummy B-B-Q","Korean, Barbeque",43.7480270796486,-79.3487305174743,NA,3.9,37,12843.6072365034,"042","Banbury-Don Mills","Bar","East Asian","Korean",1
"DKzCbTR_bAZepgG1_p_y6Q","Jkson's Restaurant & Bar","Caribbean, Bars, Barbeque",43.719604,-79.537248,NA,5,1,12389.1628317623,"023","Pelmo Park-Humberlea","Bar","Latin American","Caribbean",1
"cfXjoEFkvR7rh3tlVhPoJA","King's BBQ Chicken Restaurant","Barbeque, Chinese, Peruvian",43.68186,-79.47094,NA,3.3,3,5636.34394475854,"110","Keelesdale-Eglinton West","Bar","East Asian","Barbeque",1
"OoltsCTAg6aF2VbB_4s7qA","Kisha’s Tropical Cuisine","Caribbean, Barbeque",43.65378,-79.37372,NA,3,3,4007.21137369637,"168","Downtown Yonge East","Bar","Latin American","Caribbean",1
"ZobB_ZrgLrxwikCNA6Txxw","Sing Sing BBQ House","Barbeque",43.6652603,-79.3529282,NA,2.8,4,6024.25079277322,"070","South Riverdale","Bar","Other","Barbeque",1
"Vz3sCriSaCLp0pJGwsNKag","Karahi Boys","Pakistani, Barbeque",43.74385,-79.29975,NA,3.7,59,14717.6260845929,"119","Wexford/Maryvale","Bar","South Asian","Pakistani",2
"h9pgw0FaCSKJI1OFvNgtwg","Brickyard BBQ & Bar","Barbeque",43.6209736945916,-79.5490830762815,NA,3.3,25,10566.5414456102,"159","Etobicoke City Centre","Bar","Other","Barbeque",1
"gteA1_bDN-spzeiJmaBizg","Ram in the Rye","Bars, Barbeque",43.6579658916211,-79.3778977543116,NA,2.3,8,3827.52246506562,"168","Downtown Yonge East","Bar","Other","Bars",1
"zB8erSywGYxQB06FmVKfYA","The Sun Barbecue Company","Barbeque, Chicken Wings",43.5991,-79.5444,"Medium",5,3,11096.39569745,"020","Alderwood","Bar","Other","Barbeque",1
"PLa2EQ60fVpHoxJC5UmQ-A","Costa Verde BBQ Chicken","Portuguese, Barbeque",43.7271004,-79.4825287,"Medium",3.1,26,10302.0625137396,"155","Downsview","Bar","European","Portuguese",1
"URvh6DgFyA-d6Z7OVKxczg","Rally Restaurant and Bar","Sports Bars, Barbeque, Smokehouse",43.7174661,-79.305012,"Medium",3.9,113,12366.6498059193,"043","Victoria Village","Bar","Other","Sports Bars",1
"2F4UhgnP9VzIhQL_qvfdaA","Daldongnae Korean BBQ - Sheppard","Barbeque, Korean",43.7624550542034,-79.41156,NA,3.8,18,13036.3272718986,"038","Lansing-Westgate","Bar","East Asian","Barbeque",1
"K0_7-QjuNKMqVgLnvI5C1g","Chicken Place","Soup, Barbeque, Sandwiches",43.7644938,-79.4763179,"Medium",4.8,24,13942.0661616307,"027","York University Heights","Bar","Other","Soup",1
"wfodQFCUYXaeVRG34Gy6TQ","George's Deli & BBQ","Delis, Sandwiches, Barbeque",43.65819,-79.37262,"Low",2.6,43,4227.96000596269,"073","Moss Park","Bar","Other","Delis",2
"02A-lf3A1SW3mYexFH5xYw","Sumaq Iraqi Charcoal Grill","Barbeque, Middle Eastern",43.744255236665,-79.2977900955116,NA,3.6,62,14857.3898720417,"119","Wexford/Maryvale","Bar","Middle Eastern","Barbeque",1
"PECZ9xfK5fjgsuc2Rwufjw","Mimico Pub & Grill","Bars, Karaoke, Barbeque",43.61775,-79.49852,NA,1,1,6877.92862679103,"160","Mimico-Queensway","Entertainment","Other","Bars",1
"xJxvw8BDhOPUa4NVCwfU3A","Ghadir Meat & Restaurant","Seafood, Middle Eastern, Barbeque",43.7439061598943,-79.3038383884685,NA,4.3,30,14505.1143546322,"119","Wexford/Maryvale","Bar","Middle Eastern","Seafood",1
"FVrZStAgbGBwltiN11zwBg","Esau Parrilla","Food Trucks, Barbeque",43.6516,-79.38331,NA,2.3,4,3230.71575714075,"170","Yonge-Bay Corridor","Bar","Other","Food Trucks",1
"hY77DYw8mh1WT9yypK4qyA","Arizona Grill Lounge","Barbeque, Mexican, Pubs",43.6835879634285,-79.5936031644176,"Medium",2.3,142,14422.0770985136,"001","West Humber-Clairville","Bar","Latin American","Barbeque",1
"6jBkFP7tRYYQJQwtupoIEA","Gujarat Grill","Indian, Barbeque",43.7275935901149,-79.2303182557225,NA,5,1,17930.4780376119,"123","Cliffcrest","Bar","South Asian","Indian",1
"8x7iKbQD2v_1_rIK71-6Yw","Sultan BBQ & Grill","Halal, Barbeque, Seafood",43.73831,-79.21812,NA,3.3,7,19360.6118531925,"139","Scarborough Village","Bar","Other","Halal",1
"1ECSJxGQwWdtIVfBVR4-Nw","Delicious Wings House","Chicken Wings, Barbeque, Burgers",43.7546,-79.35225,NA,5,1,13187.2892953955,"042","Banbury-Don Mills","Bar","Other","Chicken Wings",1
"37joQpD9m5AIcrW1c8OBnQ","Urban Smoke Fusion BBQ Food Truck","Street Vendors, Barbeque, Food Trucks",43.719295501709,-79.4695663452148,"Low",3.8,9,9036.77794052968,"031","Yorkdale-Glen Park","Bar","Other","Street Vendors",1
"dERy_B711ru09qGE0aDOPw","The Chicken Nest","Chicken Wings, Barbeque",43.71873,-79.42993,"High",3.9,17,8149.46046778603,"032","Englemount-Lawrence","Bar","Other","Chicken Wings",1
"h2tkVYYu3X8dkxc_YrP30A","Sung Sung Barbeque House","Barbeque",43.66516,-79.3520999,NA,1,1,6039.54327114123,"070","South Riverdale","Bar","Other","Barbeque",1
"Gq7t6Nb303Iqugbyq-hBWg","Etob Restaurant","Barbeque, Steakhouses",43.72555,-79.55138,NA,3.8,6,13691.2597370912,"005","Elms-Old Rexdale","Bar","Other","Barbeque",1
"HWmc1Uwx-ABsrI0ZrQsHqA","Wilson's Haus of Lechon","Filipino, Barbeque",43.78658,-79.27664,NA,3.4,8,19622.7711148287,"128","Agincourt South-Malvern West","Bar","East Asian","Filipino",2
"f9I6n63u7KdJ0JVDPp3jdQ","Ghadir Fish Restaurant","Seafood, Middle Eastern, Barbeque",43.7434285,-79.3044017,NA,3.8,6,14476.673663119,"119","Wexford/Maryvale","Bar","Middle Eastern","Seafood",1
"fYNf1knSo7HofvA80IXVXg","Bbq City Rotisserie Chicken","Barbeque",43.75669,-79.58927,NA,5,1,18272.6968890946,"002","Mount Olive-Silverstone-Jamestown","Bar","Other","Barbeque",1
"9LNs7rIaRngiI57TEfSYiQ","I Love BBQ","Barbeque, Chinese",43.7894705,-79.4181252,"Medium",2.8,13,16024.5935694035,"036","Newtonbrook West","Bar","East Asian","Barbeque",1
"f7aSzCCcb3nvsJYZVfvMfg","Grill It Up","Barbeque, Seafood, Fast Food",43.7754495,-79.2541513,NA,4,1,19644.5972478709,"156","Bendale-Glen Andrew","Bar","Other","Barbeque",2
"NYpnwc4yt44SkcBb9dlhtA","Bourbon St Grill","Barbeque",43.7787787,-79.3447208,"Medium",3.5,12,16078.9534047463,"047","Don Valley Village","Bar","Other","Barbeque",4
"vaCb_1iC7VxZGd1f1Czcew","BBQ Chicken","Korean, Barbeque",43.76351,-79.41115,NA,3.9,12,13160.8784712902,"151","Yonge-Doris","Bar","East Asian","Korean",4
"xtj8twd1dlODdIZI5FjVoA","Son Lechon Bbq Restaurant","Barbeque",43.7461117,-79.486899,NA,3.7,3,12352.0492742001,"027","York University Heights","Bar","Other","Barbeque",1
"3ijLguDlxXRDSPHSVrikPQ","He He Long Bbq Take-Out Shop","Chinese, Barbeque",43.79105,-79.36664,"Low",3.1,32,16792.2403198502,"048","Hillcrest Village","Bar","East Asian","Chinese",1
"31h2Fi2XX_rOUEwiCQ7ABA","Grill City","Filipino, Barbeque",43.7228702971755,-79.2907186731911,NA,3,1,13634.3480067121,"120","Clairlea-Birchmount","Bar","East Asian","Filipino",1
"JDtGO5IeZINteE9g-Eqfdw","Sun Up Barbecue Company","Barbeque",43.72696,-79.43122,NA,3,2,9091.95297737979,"039","Bedford Park-Nortown","Bar","Other","Barbeque",1
"gLgzib9xHaC9iQbhq_xmCA","43N BBQ","Barbeque, Chinese",43.7727721390423,-79.4134658575058,NA,3,2,14172.8099971521,"151","Yonge-Doris","Bar","East Asian","Barbeque",1
"rz_MbxHYHWwZMT-F5fgfUA","Cusina Lounge","Filipino, Barbeque, Fish & Chips",43.737289174837,-79.4349258765578,"Medium",1.9,28,10260.7209444221,"033","Clanton Park","Bar","East Asian","Filipino",1
"WdhQvQbGd2HAiZ2UmlcVGA","Wild Wing","American, Barbeque, Chicken Wings",43.77288,-79.28023,"Medium",3.5,53,18190.0847520124,"126","Dorset Park","Bar","North American","American",5
"Ft060vaLmEQqHxVBK_6kkA","Hung Fok BBQ Gourmet","Barbeque, Dim Sum",43.7857392632955,-79.3521449782862,NA,3.7,6,16582.9903441308,"047","Don Valley Village","Bar","East Asian","Barbeque",1
"HesHSSFdVkQIlP7Nc88GSQ","Shawarma Daddy","Falafel, Barbeque",43.7855005376455,-79.2796417325735,NA,3.9,15,19332.9428089948,"128","Agincourt South-Malvern West","Bar","Other","Falafel",1
"ElyXdaiEE87tn40GlOknMg","Southern Smoke Truck","Barbeque, Food Trucks",43.6709060668945,-79.3162689208984,NA,3,2,8970.07842275227,"064","Woodbine Corridor","Bar","Other","Barbeque",1
"5eM6g1ZLsSYAUetHZGi-Cg","Wing Machine","Chicken Wings, Barbeque, Pizza",43.7490152435949,-79.2754819616675,NA,1,3,16484.5704278812,"126","Dorset Park","Bar","Other","Chicken Wings",3
"M6r6jKPr5tcpdatDn9K5lA","East Court & Mike's BBQ","Chinese, Barbeque",43.7883027,-79.2699046,"Medium",3.8,31,20052.5267045913,"128","Agincourt South-Malvern West","Bar","East Asian","Chinese",1
"lQ0fIxNJZZhAV7MdfG_z-Q","43 Degrees BBQ","Barbeque",43.7727166323825,-79.4134658575058,NA,1,1,14166.6455861854,"151","Yonge-Doris","Bar","Other","Barbeque",1
"DizSoX0FqH_EvXSHW6wEIQ","Le Petit Déjeuner","Breakfast & Brunch, Belgian",43.65061,-79.37023,"Medium",3.6,405,4220.83052366533,"073","Moss Park","Brunch/Breakfast","European","Breakfast & Brunch",1
"uPa5hrWmHm0n1l4MSyVMGQ","Aloette","French, Bistros, Diners",43.6485583117656,-79.395963,"High",4.3,356,2140.86534732745,"164","Wellington Place","Bistro","European","French",2
"GsersW8TSeEuZQMSs5bBxQ","Cheffry's Artisanal Bistro","Bistros, Halal, Indian",43.64823,-79.39494,NA,4.8,44,2209.10778531187,"164","Wellington Place","Bistro","South Asian","Bistros",1
"-bR_E93JC2MktefiSl1huA","Milou","Bistros, French, Cafes",43.649392,-79.4279101,NA,3.9,43,632.483123977128,"084","Little Portugal","Cafe/Bakery","European","Bistros",1
"Q8TRdS59cq-ie8FqtpjEdQ","Maison T","Bistros, French",43.67052,-79.42632,NA,4.8,24,2804.25932542968,"172","Dovercourt Village","Bistro","European","Bistros",1
"JEXasd9XUHFbt_fIdmdK8g","La Banane","French, Seafood, Bistros",43.64904,-79.4203,"Extra High",4.2,173,428.870436996866,"081","Trinity-Bellwoods","Bistro","European","French",1
"0Vm6qMgCfZIwoIVW29Nr4Q","Ngogo","French, Bistros",43.6469405,-79.4063051,NA,4.5,19,1291.41785697126,"081","Trinity-Bellwoods","Bistro","European","French",1
"O-uIEuv7JLUHajkemx_sVw","Beerbistro","Bistros, Beer Bar, Comfort Food",43.649628,-79.377165,"Medium",3.9,698,3661.29733082195,"168","Downtown Yonge East","Bar","Other","Bistros",1
"dnaf5liDvfAyKqtrPHCcxw","Teller's Bar and Lounge","International, Bars, Bistros",43.64882,-79.37805,"Medium",4.6,13,3567.74778500098,"170","Yonge-Bay Corridor","Bar","International","International",1
"l9ED01htuVR47OegwgbhDw","UK India Bistro","Indian, Bistros",43.65505,-79.41748,NA,5,3,1130.42180555021,"081","Trinity-Bellwoods","Bistro","South Asian","Indian",1
"3bffEV2SaVCL9WMb151qPQ","Cafe 85- Downtown","Cafes, Bistros, Breakfast & Brunch",43.6582978,-79.3847116,NA,3.7,3,3346.97711068528,"170","Yonge-Bay Corridor","Cafe/Bakery","Other","Cafes",1
"e_cYl6KaEtZYWTvdC-LWnw","Maison Selby","French, Bistros, Cocktail Bars",43.6712727802952,-79.3766000467065,NA,4,132,4658.72998950227,"074","North St.James Town","Bar","European","French",1
"jU_58BeD5q_MOjr_FFQEBw","Marron Bistro","Steakhouses, Kosher, Bistros",43.7004903348,-79.4286329,"High",4.5,12,6139.60943384576,"102","Forest Hill North","Steakhouses","Other","Steakhouses",1
"LSvEm-WZT_fL2acXWnNrFw","Parquet","Bistros, Beer Bar, Cocktail Bars",43.662564,-79.403625,NA,3.2,6,2418.77000247402,"079","University","Bar","Other","Bistros",1
"ngpRQ-lQEwpiWMqpA2luqw","The Old York Tavern","Beer Bar, Bistros, Breakfast & Brunch",43.64190847177,-79.4064587466248,NA,4.3,3,1329.09860226941,"162","West Queen West","Bar","Other","Beer Bar",1
"PXkvTI4iJo6SIolhYtANSw","Aloette Bay","Burgers, Wine Bars, Bistros",43.644036,-79.37753,NA,4.4,8,3599.0386224163,"166","St Lawrence-East Bayfront-The Islands","Bar","Other","Burgers",1
"6yZsohxDA97XATTwTlbKIw","Lil Joe Cucina & Bar","Bistros, Venues & Event Spaces",43.66927,-79.33615,NA,4.4,19,7413.05389049092,"070","South Riverdale","Bistro","Other","Bistros",1
"6xen0bxz_cCCHrWCejC8Og","Banbudian Bistro","Bistros",43.6522966023178,-79.397486120931,NA,4.2,5,2130.35023816553,"078","Kensington-Chinatown","Bistro","Other","Bistros",1
"NGZTLv4JBnGsb0ntINvTDg","Joni Restaurant","Bistros, Breakfast & Brunch, Cocktail Bars",43.6692,-79.394887,NA,4.2,25,3433.29444295191,"095","Annex","Bar","Other","Bistros",1
"nsFfkhSd5voL6S2O0Nm19Q","The Queensway Bistro","Bistros",43.62593,-79.50353,NA,4,1,6896.19644467428,"016","Stonegate-Queensway","Bistro","Other","Bistros",1
"8fr_dq2X5ujH5i2bJP238w","Tav's Gnocchi Pizza Bar","Italian, Pizza, Bistros",43.65512,-79.41343,NA,3.9,16,1283.07117273908,"081","Trinity-Bellwoods","Street Food","European","Italian",1
"UxWH8zRYIBgs6Q2oykvRdw","Cluny Bistro & Boulangerie","Wine Bars, Cocktail Bars, Bistros",43.6505879,-79.3578962,"High",3.5,709,5207.14905269493,"166","St Lawrence-East Bayfront-The Islands","Bar","Other","Wine Bars",1
"GG9On_mEYGmkkBWUWCkz1g","Moc Brunch & Bistro","Breakfast & Brunch, Bistros, Vietnamese",43.654772,-79.387471,NA,4.3,3,2979.68547846072,"170","Yonge-Bay Corridor","Bistro","East Asian","Breakfast & Brunch",1
"zIyqiWYKrCvAdGeWXXBxFw","Veloute Bistro & Catering","Italian, Wine Bars, Bistros",43.6313790341776,-79.4746012413817,"High",4,42,4496.6054297412,"161","Humber Bay Shores","Bar","European","Italian",1
"kSgOXd_f5jnMCnkr8B91Mg","The Broadview Bistro Bar","Bistros, Breakfast & Brunch, Cocktail Bars",43.6589675219757,-79.3501888,NA,4.5,2,5986.86390928493,"070","South Riverdale","Bar","Other","Bistros",1
"ucgzkl7atsBMGu4gGpmHfw","Peter Pan Bistro","Canadian (New), Bistros",43.64915,-79.3933799,"Medium",3.6,212,2351.86475443779,"164","Wellington Place","Bistro","North American","Canadian (New)",1
"t2oJEG1YXkO5EMoo28r80Q","Jules Bistro","Bistros",43.66389,-79.32859,NA,3.6,38,7805.73986950947,"070","South Riverdale","Bistro","Other","Bistros",2
"rBOpDqeQl0J_fbDtY-cWxg","Bumpkins Restaurant","French, Bistros",43.66662,-79.38411,"Medium",4,40,3863.535018449,"167","Church-Wellesley","Bistro","European","French",1
"STNYM0jpu32PLF2uNTrpbA","The Cherie  Bistro","Italian, Breakfast & Brunch, Bistros",43.6651269688688,-79.3808928,NA,3.7,29,3979.28669831177,"167","Church-Wellesley","Bistro","European","Italian",1
"Qo7nb8zAVjLvxSc8qIvPVg","UNO Bistro","Ukrainian, Coffee & Tea, Bistros",43.618381,-79.509504,NA,5,3,7658.63250910685,"160","Mimico-Queensway","Cafe/Bakery","European","Ukrainian",1
"uChnTTQzV7Nu7EDrluF6uw","Sauvignon Bistro","Canadian (New), Desserts, Bistros",43.668453,-79.307099,"High",4.1,46,9607.82543359543,"063","The Beaches","Cafe/Bakery","North American","Canadian (New)",1
"2QKoF_Jl1wgaFSPW0SHo2w","Tiarrés Brunch & Bistro","Bistros, Breakfast & Brunch, Desserts",43.6701713,-79.3008212006117,NA,5,1,10145.476832122,"063","The Beaches","Cafe/Bakery","Other","Bistros",1
"O-QzKFXawEOiJmonWgvKbQ","Le Conciliabule","Bakeries, Wine Bars, Bistros",43.671365,-79.3272249,NA,4.6,16,8166.86683333731,"065","Greenwood-Coxwell","Cafe/Bakery","Other","Bakeries",1
"M40XxsUYsCtCESHmPPOxQg","Jane & Dick's Bistro","Bistros, Tapas/Small Plates",43.7144,-79.40025,NA,4,3,7870.38330094059,"103","Lawrence Park South","Bistro","Other","Bistros",1
"2TZBOnl2DczDNcRdkoPYFw","Vue Bistro","Bistros, Beer Bar, Canadian (New)",43.6426283,-79.3868547,NA,2.5,8,2863.64345033784,"165","Harbourfront-CityPlace","Bar","North American","Bistros",1
"BQ_p2B-cplfT8iLr-eZyQA","Royal Bistro","Italian, Bistros, Breakfast & Brunch",43.61875,-79.49968,NA,3.9,7,6899.09530262875,"160","Mimico-Queensway","Bistro","European","Italian",1
"ch2GfqkhsZV_TMJJbPmslg","Casa Loma Terrace Grill","Bistros, American",43.6780370907439,-79.409443885088,NA,2.5,2,3764.40714459909,"096","Casa Loma","Bistro","North American","Bistros",1
"n2tpcExaHDgtrg3wBUyGnw","The Loft Kitchen & Bar","Bistros",43.77321,-79.41355,NA,5,1,14219.7172741474,"151","Yonge-Doris","Bistro","Other","Bistros",1
"5R6aB5T6pDIlgam1nbibcw","Fox Bistro","Bistros, American",43.692154,-79.576862,NA,2.1,13,13477.4750025006,"001","West Humber-Clairville","Bistro","North American","Bistros",1
"FCMRBcvrwN01eT6WRaTC6A","The Craft Brasserie & Grille","Brasseries, Pubs, American",43.6394076328957,-79.4208196351823,"Medium",3.6,183,683.563439127767,"163","Fort York-Liberty Village","Bar","North American","Brasseries",1
"LHwzyN5cllTfLuZ8v2k_Bg","Le Paradis Brasserie Bistro","French, Brasseries, Wine Bars",43.67506,-79.40025,"Medium",3.7,124,3737.95658169884,"095","Annex","Bar","European","French",1
"4Nn9QoRDkOr-DWMF7KPqOQ","Brasileirissimo Steak House","Brazilian",43.64925,-79.4226,NA,3.8,11,420.074497296066,"081","Trinity-Bellwoods","Other","Latin American","Brazilian",1
"nQxYkbV4P2h2HqJB0nfpxw","Rio 40 Restaurant","Brazilian",43.677457,-79.446485,"Medium",4,65,4056.08400721997,"092","Corso Italia-Davenport","Other","Latin American","Brazilian",1
"FrFsYDjbOT7ZYTtpgllFpg","Girl from Ipanema","Diners, Brazilian, Sandwiches",43.6966301994833,-79.4509939849377,NA,4,2,6141.2650855059,"108","Briar Hill-Belgravia","Diner","Latin American","Diners",1
"qd36sdwC3gajpsViaRKaiQ","Sabor Carioca","Brazilian",43.67464,-79.45927,NA,5,1,4405.94212591862,"091","Weston-Pelham Park","Other","Latin American","Brazilian",1
"6Ej4FfMKUJadTeDjfw3c4Q","Samba Brazil Eatery","Brazilian, Sandwiches, Fast Food",43.67498,-79.45728,NA,4.1,8,4329.24506937085,"091","Weston-Pelham Park","Fast Food","Latin American","Brazilian",3
"j2U2vs4WWlF6SR5SS_D1lA","Brazil Bakery and Pastry","Bakeries, Brazilian, Portuguese",43.649907830042,-79.434125988384,"Low",4.1,51,1077.147973898,"084","Little Portugal","Cafe/Bakery","European","Bakeries",1
"tvYID0arhN-shKGUrC1Wsg","Copacabana Brazilian Steak House","Brazilian, Steakhouses",43.707823,-79.393985,"High",3.5,428,7297.92790854413,"173","North Toronto","Steakhouses","Latin American","Brazilian",1
"53_BDRxqMV8Ba54iSj9paA","Samba Brazil Eatery","Brazilian, Fast Food",43.65734,-79.38093,NA,4.3,7,3587.88933075036,"168","Downtown Yonge East","Fast Food","Latin American","Brazilian",3
"X65ECv_m7fqpKK81CJXWsA","Samba Brazil Eatery","Brazilian, Fast Food, Sandwiches",43.7032985677866,-79.3974439170048,NA,5,2,6732.01022136527,"174","South Eglinton-Davisville","Fast Food","Latin American","Brazilian",3
"GlvxiSIZXlWBnZGyQ-HfrA","Brazilian Burger Bar","Burgers, Brazilian",43.65518,-79.34057,NA,3.5,4,6663.88184958531,"070","South Riverdale","Street Food","Latin American","Burgers",1
"trKyIRyjKqVSZmcU0AnICQ","Pearl Diver","Seafood, Comfort Food, Breakfast & Brunch",43.65163,-79.37375,"Medium",4.2,665,3957.26074816407,"168","Downtown Yonge East","Brunch/Breakfast","Other","Seafood",1
"kOFDVcnj-8fd3doIpCQ06A","Mildred's Temple Kitchen","Breakfast & Brunch, Canadian (New)",43.6399108749312,-79.4204235076904,"Medium",4,1132,634.96011584086,"163","Fort York-Liberty Village","Brunch/Breakfast","North American","Breakfast & Brunch",1
"_5izyrn1qV0uyec65UsdIA","LOCAL Public Eatery Liberty Village","Sports Bars, Breakfast & Brunch, American",43.6381221,-79.4181561,"Medium",3.8,330,880.26433922311,"163","Fort York-Liberty Village","Bar","North American","Sports Bars",1
"YHubCF0Ua0uC6HC2tm-arQ","The Federal","Breakfast & Brunch, Bars, American",43.6497699,-79.43011,"Medium",4,192,792.815122554572,"084","Little Portugal","Bar","North American","Breakfast & Brunch",1
"7gnYWanhD6O7qOF-NfPNhA","Frankie's","Breakfast & Brunch, Diners",43.6445099,-79.41842,"Medium",4,206,326.528540199207,"081","Trinity-Bellwoods","Brunch/Breakfast","Other","Breakfast & Brunch",1
"ovqp9IltLJ9TsEaAhCaVkQ","The Arch Café","Breakfast & Brunch, Cafes",43.65634473576,-79.4026142970393,NA,4.6,34,1987.91880373343,"078","Kensington-Chinatown","Cafe/Bakery","Other","Breakfast & Brunch",1
"vMOvHfVMYL2V_X-L5ryNtQ","1 Kitchen","Cocktail Bars, Breakfast & Brunch",43.6430415376097,-79.4019655669139,NA,4.3,76,1652.46684634151,"164","Wellington Place","Bar","Other","Cocktail Bars",1
"oTIrLlpOOYIPCswyui0BgA","Sisters & Co","Breakfast & Brunch, Coffee & Tea, Sandwiches",43.650951,-79.411703,"Medium",4.4,150,1038.05711076518,"081","Trinity-Bellwoods","Cafe/Bakery","Other","Breakfast & Brunch",1
"74ynvQJihDvXr_1bEiOh-g","La Plume","French, Desserts, Breakfast & Brunch",43.6432133153733,-79.3969598785043,NA,4.2,30,2048.45979943119,"164","Wellington Place","Cafe/Bakery","European","French",1
"PyjnsWzNUTo1n2ohq0QznA","Dirty Food Eatery","Breakfast & Brunch, Comfort Food, Southern",43.66565,-79.47188,"Medium",4.5,166,4581.40398173795,"090","Junction Area","Brunch/Breakfast","Other","Breakfast & Brunch",1
"za9EO-X_Ht3pvyfOpJuIVA","Molkagtez","Mexican, Breakfast & Brunch, Desserts",43.6415152106234,-79.431099,NA,4.2,16,838.552744354205,"085","South Parkdale","Cafe/Bakery","Latin American","Mexican",1
"VhQXJteVrG3L-wq8HlYFqw","The Ace","Comfort Food, Breakfast & Brunch, Canadian (New)",43.646122,-79.448823,"Medium",3.8,214,2141.30047306465,"086","Roncesvalles","Brunch/Breakfast","North American","Comfort Food",1
"BAZKOcjfiSsSkS0i4fjfdg","Gateau Ghost","Breakfast & Brunch, Coffee & Tea, Bakeries",43.6536637519572,-79.4277843153413,NA,4.3,31,1014.91746128494,"083","Dufferin Grove","Cafe/Bakery","Other","Breakfast & Brunch",1
"eYeFOcNJO2iTNPCPi8XAxw","El Pocho Antojitos Bar","Bars, Breakfast & Brunch, Mexican",43.66963,-79.41338,"Medium",4.3,94,2779.32631339136,"095","Annex","Bar","Latin American","Bars",1
"fN_I3jP7RD2llubTvhXtKQ","Good Fork","Breakfast & Brunch, Canadian (New), Turkish",43.6498781462521,-79.4334161634989,"Medium",4,435,1025.13167094244,"084","Little Portugal","Brunch/Breakfast","Middle Eastern","Breakfast & Brunch",1
"MNmnwqlekpLOLQS-oYjjfQ","Sad Songs Cantina","Breakfast & Brunch, Mexican, Cocktail Bars",43.6586760562231,-79.4399406853667,NA,5,3,2046.34438715297,"083","Dufferin Grove","Bar","Latin American","Breakfast & Brunch",1
"9B_lhM_Ys7AIykLMvyPypg","El Venezolano","Venezuelan, Breakfast & Brunch, Cocktail Bars",43.6798269,-79.3413146,NA,4.2,35,7546.88660895687,"066","Danforth","Bar","Latin American","Venezuelan",1
"6cz8xLR64Iuzpa4NNcFHqg","King Rustic","Comfort Food, Cocktail Bars, Breakfast & Brunch",43.6418019534315,-79.4121160358191,"Medium",3.7,72,910.035035387312,"162","West Queen West","Bar","Other","Comfort Food",1
"1Re9xpZaZr_BnUOFo5gW3Q","T.O. Dickens Restaurant","Breakfast & Brunch, Italian, Comfort Food",43.656801,-79.403267,NA,4.4,9,1983.12136198259,"078","Kensington-Chinatown","Brunch/Breakfast","European","Breakfast & Brunch",1
"QLEFWBuJC5ISpOBfCXrOew","Sunny Taiwanese Breakfast","Breakfast & Brunch, Taiwanese",43.663856,-79.386461,NA,3.9,8,3532.46526950543,"169","Bay-Cloverhill","Brunch/Breakfast","East Asian","Breakfast & Brunch",1
"e41TP5cXZqSrz50xCBJqZw","Insomnia Restaurant & Lounge","Lounges, Breakfast & Brunch, Comfort Food",43.665961,-79.411003,"Medium",4.1,1057,2450.83606380656,"095","Annex","Brunch/Breakfast","Other","Lounges",1
"ocLnCE2E29j-CoBQj1yaSA","Cafe Landwer","Cafes, Breakfast & Brunch, Mediterranean",43.648756586341,-79.3851623211785,"Medium",4.2,636,3004.48454282721,"170","Yonge-Bay Corridor","Cafe/Bakery","Mediterranean","Cafes",1
"vM_s5ORV4iYTXULxf9Thxw","OEB Breakfast - Toronto Street","Breakfast & Brunch",43.650258,-79.376691,NA,4.4,71,3705.7836419145,"168","Downtown Yonge East","Brunch/Breakfast","Other","Breakfast & Brunch",1
"dN-Uy9sv9r5o_F3EgTTPHA","One Eyed Jack - Toronto","Sports Bars, Breakfast & Brunch, Chicken Wings",43.6485946,-79.3926332,NA,3.9,13,2406.27878875351,"164","Wellington Place","Bar","Other","Sports Bars",1
"V9qjoWogqqMWvFFpuASRYw","Evviva Breakfast & Lunch","Breakfast & Brunch",43.641602,-79.383301,"Medium",3.8,462,3161.5260809165,"165","Harbourfront-CityPlace","Brunch/Breakfast","Other","Breakfast & Brunch",1
"lluWviKcr6Efiy_-vpA79A","Sleepy Pete's","Breakfast & Brunch",43.6543862754235,-79.4004564732313,NA,4.6,14,2012.63616874147,"078","Kensington-Chinatown","Brunch/Breakfast","Other","Breakfast & Brunch",1
"Z5kjUEm1A18l864gb3XA8A","Town Crier Pub","Pubs, German, Breakfast & Brunch",43.6480479699209,-79.3901396970807,"Medium",4,267,2597.57197929459,"164","Wellington Place","Bar","European","Pubs",1
"8VvK9RZOQ0fA0EI52yyXDQ","BB's","Filipino, Breakfast & Brunch, Cocktail Bars",43.642058,-79.432207,NA,4,20,905.549458390725,"086","Roncesvalles","Bar","East Asian","Filipino",1
"fEGJVOxmBhCHuYDkje-K3g","OEB Breakfast Co. - Liberty Village","Breakfast & Brunch",43.63836,-79.41623,"Medium",4.5,179,890.825698675389,"163","Fort York-Liberty Village","Brunch/Breakfast","Other","Breakfast & Brunch",1
"GchqFBWs7R6LrJAnj9RUIA","Louf","Middle Eastern, Breakfast & Brunch, Cocktail Bars",43.6775426640958,-79.4070345908403,NA,4.4,5,3769.84455411592,"096","Casa Loma","Bar","Middle Eastern","Middle Eastern",1
"WFjk6EyrKLApX4oUQ-j76A","Impact Kitchen","Bakeries, Breakfast & Brunch, Salad",43.6473661944633,-79.3791303,NA,5,1,3473.96493742467,"170","Yonge-Bay Corridor","Cafe/Bakery","Other","Bakeries",4
"i--dxuKd_6Dx7mwgQ5nl-g","School Restaurant","Bakeries, Breakfast & Brunch, Canadian (New)",43.63784,-79.42435,"Medium",3.5,681,873.280925630189,"085","South Parkdale","Cafe/Bakery","North American","Bakeries",1
"bTi4zsxj5tmiVBHxmapmUw","Deauville Club","French, Breakfast & Brunch, Cocktail Bars",43.6469699,-79.3932324,NA,4.3,3,2338.838917366,"164","Wellington Place","Bar","European","French",1
"9dV86LKzD6WNPTf3FDiT_A","Lume Kitchen and Lounge","Lounges, Breakfast & Brunch, Cocktail Bars",43.624227670313,-79.4844043,NA,5,8,5533.43807231134,"161","Humber Bay Shores","Bar","Other","Lounges",1
"Vc0lg1LXRx_MZ4pd1CDgEw","King Taps","Breakfast & Brunch, Cocktail Bars, Pizza",43.644851,-79.400914,NA,4.6,5,1722.70654216939,"164","Wellington Place","Bar","Other","Breakfast & Brunch",2
"iyRufQdOXO73tdXfzhAA1A","Bad Egg","Coffee & Tea, Breakfast & Brunch, Burgers",43.6533813,-79.3695623828208,NA,5,4,4327.5525006279,"073","Moss Park","Cafe/Bakery","Other","Coffee & Tea",1
"eB6Ppy591kP8I3mSLMeAVw","Ohiru Cafe","Breakfast & Brunch, Japanese, Coffee & Tea",43.657258,-79.404682,"Medium",4.5,71,1926.95429745641,"079","University","Cafe/Bakery","East Asian","Breakfast & Brunch",1
"LOSuuMiyTxLki5cI9Ck4KQ","Boom Breakfast","Breakfast & Brunch, Italian, Poutineries",43.65476,-79.42179,NA,5,1,1026.62349204743,"080","Palmerston-Little Italy","Street Food","European","Breakfast & Brunch",2
"pfpOi3Q-Yap72z2bLKdWPQ","Drake's Corner Café + Bistro","Breakfast & Brunch, Canadian (New)",43.64328,-79.42459,"Medium",3.4,109,316.982922768711,"084","Little Portugal","Brunch/Breakfast","North American","Breakfast & Brunch",1
"A1XZOukMHfwW8w_kbxfZIQ","Sammi","Breakfast & Brunch, Hong Kong Style Cafe, Coffee & Tea",43.68016,-79.34015,NA,4.1,15,7639.02050277602,"066","Danforth","Cafe/Bakery","East Asian","Breakfast & Brunch",1
"25x2uEOj0gcuiojR8-fTNw","Cafe Landwer - Spadina","Breakfast & Brunch, Cafes, Mediterranean",43.68817,-79.41233,NA,4.9,15,4814.37819630463,"096","Casa Loma","Cafe/Bakery","Mediterranean","Breakfast & Brunch",1
"TvuuHpean6L6vqFucWcSKQ","Cafe Landwer- Front","Breakfast & Brunch, Mediterranean, Cafes",43.6476258746323,-79.3764915055223,NA,4.4,26,3687.67507810997,"168","Downtown Yonge East","Cafe/Bakery","Mediterranean","Breakfast & Brunch",1
"whhBvsrFMDDOa0-mxJHqmA","L’Avenue","Breakfast & Brunch",43.64354,-79.39615,NA,3.8,16,2115.70462039208,"164","Wellington Place","Brunch/Breakfast","Other","Breakfast & Brunch",2
"eOZS4-R90sJQBt4xcziSEA","Starbucks","Coffee & Tea, Bakeries, Breakfast & Brunch",43.6381153416793,-79.3999820325896,NA,4,1,1967.91363426566,"165","Harbourfront-CityPlace","Cafe/Bakery","Other","Coffee & Tea",3
"mhPvzAQ3rYJ10xLPymrNUA","Dacasto","Bakeries, Cafes, Breakfast & Brunch",43.6492715151376,-79.3761992,NA,5,2,3727.38889793404,"168","Downtown Yonge East","Cafe/Bakery","Other","Bakeries",1
"9tfw-OEfpF0qC2hSzRks6g","Hair of the Dog","Pubs, Comfort Food, Breakfast & Brunch",43.662946823805,-79.379592870241,"Medium",3.8,388,3942.16072294388,"167","Church-Wellesley","Bar","Other","Pubs",1
"9tKazRXjY6fkhlntKgFn_Q","Kitchen On Sixth","Breakfast & Brunch, British",43.6005867949987,-79.5068445875054,"Medium",4.5,65,8443.99563278014,"018","New Toronto","Brunch/Breakfast","European","Breakfast & Brunch",1
"bVkrRpSW6WNGvjdOHxoG0Q","Ladybug Wine Bar","Wine Bars, Breakfast & Brunch, Cocktail Bars",43.6565929665409,-79.3571092933416,NA,4.8,13,5383.02066266199,"073","Moss Park","Bar","Other","Wine Bars",1
"_cjPEH9wXhKS-HQe_U3M4Q","Le Sélect Bistro","French, Coffee & Tea, Breakfast & Brunch",43.6439055771458,-79.3968523102889,"High",3.9,521,2049.07238723539,"164","Wellington Place","Cafe/Bakery","European","French",1
"h_ypoQ2rmwX8UGSmohsGiQ","maman","Bakeries, Coffee & Tea, Breakfast & Brunch",43.6489996482418,-79.381692368518,"Medium",3.5,146,3284.89627420094,"170","Yonge-Bay Corridor","Cafe/Bakery","Other","Bakeries",1
"UPThULfNFsRXY0UJRpgHjg","Le Lert","Thai, Bars, Breakfast & Brunch",43.661167,-79.381253,NA,3.8,19,3728.89368947838,"168","Downtown Yonge East","Bar","East Asian","Thai",1
"zmfa8RNxqSuOJ9Nx-CMs_Q","Positano Restaurant","Pizza, Italian, Breakfast & Brunch",43.704721174577,-79.3885415149198,"Medium",4,69,7123.60515798798,"099","Mount Pleasant East","Street Food","European","Pizza",1
"9Sw3iu0vOJ9-AO0y6ed8FQ","HolmPei Cafe Bistro","Cafes, Breakfast & Brunch, Cocktail Bars",43.6556910880713,-79.3844062,NA,4,14,3248.15768692318,"170","Yonge-Bay Corridor","Cafe/Bakery","Other","Cafes",1
