"id","name","latitude","longitude","price_level","rating","review_count","distance","neigh_id","neighbourhood","type","cuisine","size_level"
"K3V9JWBZgIMtSICc4kBRUA","Naan & Kabob",43.6690684857838,-79.3860201,"Medium",4,175,3920.33441767313,"167","Church-Wellesley","Other","South Asian","Single Location"
"S-jKUDEKOmaOpgdU32gNWA","Naan Kabob",43.6503555207276,-79.3906833186624,NA,5,6,2595.4042072468,"078","Kensington-Chinatown","Other","South Asian","Small Chain"
"GdCRQU3VCh_x8fY84mbwYQ","Bamiyan Kabob",43.70779,-79.34344,"Medium",4,166,9403.66232387503,"055","Thorncliffe Park","Other","South Asian","Small Chain"
"MvNRA9k-xF9ug5gXZexPog","Naan And Kabob",43.7049057279802,-79.3614039241258,NA,4,28,8222.20822850657,"056","Leaside-Bennington","Other","South Asian","Single Location"
"I6nkV6OY9UZtttZEefgydg","Kabob Guys",43.648153,-79.395679,NA,4.2,10,2154.48192776816,"164","Wellington Place","Other","South Asian","Single Location"
"oiocguLkMNwH6gux2wxMfQ","Shawarma House",43.64974,-79.36561,"Medium",3.4,16,4590.23380881523,"166","St Lawrence-East Bayfront-The Islands","Other","South Asian","Single Location"
"4QTwtaua8tjc-PuneLXJzw","Kabul Kabab House",43.6716309,-79.3256378,NA,3.8,6,8296.29783381216,"065","Greenwood-Coxwell","Other","South Asian","Single Location"
"8pJnxLwrosp1m-AkZs_V0Q","Mazadar",43.6664947885561,-79.3170488253236,NA,4.2,5,8778.43472213335,"065","Greenwood-Coxwell","Other","South Asian","Single Location"
"VtQIAj8eXvHqc_8MtMMGwg","Afghan Cuisine",43.70805,-79.34294,"Medium",3.7,69,9430.13626475276,"055","Thorncliffe Park","Other","South Asian","Single Location"
"5B_YKWtJthJqmD5MYw2maA","Hot Pot Cafe",43.6862154,-79.3112465,"Low",4,8,10010.6667027145,"062","East End-Danforth","Other","South Asian","Single Location"
"ytYP2UXkRow2L3emGp469w","Afghan Kebob Cuisine",43.7160486,-79.5556858,"Low",3.6,16,13295.5835386138,"004","Rexdale-Kipling","Other","South Asian","Single Location"
"sqj18NheItQq-PR9c4uM4g","Kandahar Kabab",43.7051458823459,-79.3486794388337,NA,2.7,44,8889.14633179435,"055","Thorncliffe Park","Other","South Asian","Single Location"
"jsMDbYZVaw9g0_FmsS17bA","Grill N Thrill Kabob",43.6617953687539,-79.3977532641196,NA,2.3,3,2678.00427264036,"079","University","Street Food","South Asian","Single Location"
"V-aweI6rrw8d6MfG1lAPjw","Little Kabul Kabob",43.7146088321063,-79.5687001462575,NA,4.1,9,14065.8443170417,"001","West Humber-Clairville","Other","South Asian","Single Location"
"SO967mepbkVeGtJ7pg7c1Q","Mumtaz Grill Restaurant",43.7460141,-79.48688,NA,3.9,8,12317.9411259143,"027","York University Heights","Other","South Asian","Single Location"
"yU4zevCwPAQIMb73smTHog","Bamiyan Kabob",43.77361,-79.4920999,"Medium",4.1,94,15297.9687394969,"027","York University Heights","Other","South Asian","Small Chain"
"R0VWDbJxUt4xZ3Os_YLDDg","Zaytoun Kitchen",43.714982505415,-79.5937590371701,NA,4.3,4,15812.0636522412,"001","West Humber-Clairville","Other","South Asian","Single Location"
"8OXgrxXm45OauJsc0lGRPw","Baghlan Kebob & Bakery",43.7142045953301,-79.5583274831869,NA,4.2,9,13349.3390070606,"004","Rexdale-Kipling","Cafe/Bakery","South Asian","Single Location"
"OR648Fgmc6oGvobTT5h-ig","Naan Kabob",43.7721615317274,-79.2819063903285,NA,4.8,5,18046.1373116563,"126","Dorset Park","Other","South Asian","Small Chain"
"ceK2VvPlxPBPo1evXOlD7g","Naan and Kabob",43.74251,-79.3051799,"Medium",3.7,90,14307.8379132489,"119","Wexford/Maryvale","Other","South Asian","Small Chain"
"KWKZvqNtsnPQltn6ZxOjDw","Al-Meezans Spicy Grill",43.72075,-79.6132499,"Low",3.2,17,17482.4502819671,"001","West Humber-Clairville","Other","South Asian","Single Location"
"nuNraiaIluYc9vDZg7XfRA","Naan and Kabob",43.775038,-79.25738,"Medium",2.9,15,19573.5582453205,"156","Bendale-Glen Andrew","Other","South Asian","Small Chain"
"09Z8oXGu9qA9xBwzgSFVfg","Plan B",43.6479836241101,-79.5075397487381,NA,4.7,48,6870.16965147304,"016","Stonegate-Queensway","Other","African","Single Location"
"TDgaxOFpTKm0zkpviNelpw","Afrobeat Kitchen",43.640425,-79.438448,NA,4.9,11,1420.70795472539,"086","Roncesvalles","Other","African","Single Location"
"c0JwlmMcjTlgIAdx_tKg_w","Mild Afro Lounge",43.64971,-79.42023,NA,3.1,10,481.108537607014,"081","Trinity-Bellwoods","Lounges","African","Single Location"
"efFIGYJDnqPnjXlASxF7PQ","Lucy Ethiopian Restaurant",43.6841128,-79.3207142,"Medium",4.4,76,9226.89980331466,"066","Danforth","Other","African","Single Location"
"UsKmYp0m8VYWM96tkGm2vQ","African Palace",43.66107,-79.42895,"Medium",3.9,100,1825.71024224675,"080","Palmerston-Little Italy","Other","African","Single Location"
"yGoQENv-m4dkY4XkUgV6Sg","Galito's Flame Grilled Chicken",43.7058562214437,-79.345849044621,NA,4.3,3,9100.30559380466,"055","Thorncliffe Park","Other","African","Small Chain"
"MiapXFjVOZnQ87eGxaOimA","SK Cookks",43.6396779,-79.421963680648,NA,3.2,13,644.424813707452,"085","South Parkdale","Other","Latin American","Single Location"
"-IlQvDjwqOnA0iqlbmWX-Q","Le Plato",43.67935,-79.3415799,NA,4.4,9,7501.05391504179,"069","Blake-Jones","Other","African","Single Location"
"2pKpeyPnek0I-_yEvlFK3A","MamaLand Resto-Lounge",43.65899,-79.44242,"Medium",3.2,5,2229.93892018415,"171","Junction-Wallace Emerson","Lounges","Latin American","Single Location"
"LGrXzldG5_Q6urGyuqqBrw","Wanaag",43.6571922628415,-79.3652309964915,NA,5,7,4767.20209989356,"073","Moss Park","Cafe/Bakery","African","Single Location"
"dLx4U_l-PF_5VGbjzPfSwQ","Instant du Palais",43.70308,-79.38773,NA,4.5,8,6985.01846748634,"099","Mount Pleasant East","Other","African","Single Location"
"-hAFDLTPzrPA8zVqD9-Agg","Mushkaki's",43.7111454,-79.5677166,"Low",3.9,47,13793.4893528248,"001","West Humber-Clairville","Street Food","African","Single Location"
"ebXxKRelQuT1td5ON_5hUg","Ryan Restaurant",43.65597,-79.36409,NA,4,3,4815.7856442451,"072","Regent Park","Other","Middle Eastern","Single Location"
"VQ39EBhWh5EcyOpp2Hd6mQ","Calabar Grill",43.6874191266778,-79.4909542993467,NA,4.3,3,7233.13609158,"115","Mount Dennis","Other","African","Single Location"
"C312Uq4rp3e3pPas3dHw4Q","Ethio & Eri",43.65179,-79.40485,NA,4.7,3,1612.59263527291,"078","Kensington-Chinatown","Cafe/Bakery","African","Single Location"
"gFUSJwVzEDERbaU9FVKfRA","Rajkapuri's Paan & Snacks",43.693409,-79.3423964,NA,4,7,8346.01352531927,"058","Old East York","Other","African","Single Location"
"jyTVMcDQvibPXCNdZ_Fv8g","Ruumors Resto-Lounge",43.66588,-79.48752,NA,3.8,4,5718.56741919096,"089","Runnymede-Bloor West Village","Lounges","African","Single Location"
"OJLR2T3CgXQkUgFmqrkTwQ","Istar Restaurant",43.69668,-79.54387,"Medium",4.4,31,11352.7071479948,"006","Kingsview Village-The Westway","Other","African","Single Location"
"TUD3RUtNdKYh2UyQuYdR2A","Sahan Restaurant",43.7450295437891,-79.2963746935129,"Medium",4.4,67,14997.6469278678,"119","Wexford/Maryvale","Steakhouses","African","Single Location"
"ZeLX4hPOjugN9BNtApNHkQ","Jikoni Grill",43.7911607,-79.3132241,"Medium",4.3,3,18444.244678227,"148","East L'Amoreaux","Other","South Asian","Single Location"
"wjOGOfcZTk_fuZLjbMCmiA","Caribbean Lyme",43.7434288838849,-79.6054899587193,NA,4,16,18323.1164732568,"001","West Humber-Clairville","Other","Latin American","Single Location"
"emNQ1jxMev2NzIcP2wdfgg","Simba Grill",43.6934172072181,-79.3423694245142,"Medium",3.7,27,8347.37618402052,"058","Old East York","Other","South Asian","Single Location"
"TqoS79zEtaV9qpxOIdVnWA","Afro Spice",43.7637617,-79.4992268,NA,5,4,14480.368625493,"027","York University Heights","Other","African","Single Location"
"qmIzqm_LGiNE2bkA2c3o5Q","Idlove Restaurant",43.6836392,-79.4812898,NA,3,3,6370.61670124897,"111","Rockcliffe-Smythe","Bar","African","Single Location"
"cJsMr9iROwQsslt5eRZDpA","Afro Continental Bar and Grill",43.7345009,-79.5600586,NA,4.5,4,14857.6811313495,"003","Thistletown-Beaumond Heights","Bar","African","Single Location"
"RL00Hsncq4R-_rJ4pW2Rmw","Nando's",43.620746686324,-79.5554268,"Medium",3.2,81,11066.8731063853,"159","Etobicoke City Centre","Fast Food","African","Single Location"
"hlfk9WZxWMk6gHbsazhvTg","The Suya Spot",43.7397277,-79.5385519,"Medium",2.5,20,14047.1162427207,"022","Humbermede","Other","African","Small Chain"
"9rvRHoEgbUDAx4jbzv80uQ","Memories of Africa",43.72566,-79.31279,"Low",2.7,3,12498.0398145613,"043","Victoria Village","Other","African","Single Location"
"ELOZiUAykvEPKFw6GF-aAQ","Blessinglicious",43.72148,-79.23607,NA,4.2,5,17188.7188107627,"123","Cliffcrest","Other","African","Single Location"
"7mRKyX7ryuJTPs3Rcaxh4A","Hamdi Restaurant",43.7143226,-79.5570968,"Medium",3.3,26,13275.8716589949,"004","Rexdale-Kipling","Other","African","Single Location"
"k5o2AcLFGPA7ysbESAIdaQ","African Village",43.720985,-79.537047,NA,2.5,4,12480.2456155143,"023","Pelmo Park-Humberlea","Other","African","Single Location"
"iJ2m622G8BXUF8U0O8N09Q","Taste and See Unique African Kitchen",43.7566371311195,-79.5193906500936,NA,2.3,3,14622.2310267245,"025","Glenfield-Jane Heights","Other","African","Single Location"
"7yKiBNv5wpr4xEHIisAXOg","Golden Gate restaurant",43.7235107,-79.5598984,NA,3.2,5,14068.9307316308,"004","Rexdale-Kipling","Other","African","Single Location"
"COExayvsDDJOjWTOFZ7a4A","Panafest",43.7420692,-79.5143433,NA,3.4,5,13044.8543553063,"025","Glenfield-Jane Heights","Bar","African","Single Location"
"m_KxjrHzcVgYgtiPlmqFYA","Zezafoun Syrian Cuisine",43.70267,-79.39712,"Medium",4.5,129,6677.05418655828,"174","South Eglinton-Davisville","Other","Middle Eastern","Single Location"
"68HMOQ42vNOnTJ14bv_RxQ","Mandi Afandi",43.708328,-79.3426392,NA,4.4,10,9477.25366523222,"055","Thorncliffe Park","Other","Middle Eastern","Single Location"
"2cJUG8ibxVFXEoYbjD2spg","Poutine Hub",43.6560219563019,-79.3643452227116,NA,5,6,4802.39502291991,"072","Regent Park","Other","East Asian","Small Chain"
"h3qZZBtRVBFlhr-KXFW9vA","Alforat Restaurant",43.73636,-79.30813,NA,4.1,20,13659.6815619131,"043","Victoria Village","Other","Middle Eastern","Single Location"
"By9ej8N7bzn_NqbcVhaLtw","Kababia",43.68178,-79.33198,NA,3.7,19,8300.57417645297,"066","Danforth","Other","Mediterranean","Single Location"
"aCNiO3KPX-nB2vdSRFjxdQ","Palmyra Mediterranean House",43.6500811574448,-79.6041967664423,"Medium",4.2,95,14650.3755262974,"011","Eringate-Centennial-West Deane","Other","Middle Eastern","Single Location"
"5HeJ9wyEYq9ua5WGxXVjJA","Vos Restaurante Argentino",43.6542227481167,-79.423148644379,NA,4.1,44,976.059655753521,"081","Trinity-Bellwoods","Other","Latin American","Single Location"
"xPP39VfL_uYgKtWkzp_3Sw","Bacan",43.6501,-79.4502,NA,3.8,24,2311.37321759227,"086","Roncesvalles","Cafe/Bakery","Latin American","Single Location"
"UM8ihaRBBW-aJg3pX7CyQw","Gaucho Pie",43.6710432483332,-79.4347860664129,NA,4.3,10,3017.76523935278,"171","Junction-Wallace Emerson","Other","Latin American","Single Location"
"_bTENhxpXDmJozpIU75Hqg","Super Empanada",43.64507,-79.41588,NA,5,3,520.360069738468,"081","Trinity-Bellwoods","Other","Latin American","Single Location"
"M6eb5ISVJdiI8W7oHBHeEw","Midnight Market",43.656738999529,-79.4073457,NA,4.6,14,1733.02234719357,"079","University","Lounges","East Asian","Single Location"
"c78Pat78fVUBFPXYeVvbaQ","Oddseoul",43.646192,-79.419762,"Medium",3.8,349,211.050491637271,"081","Trinity-Bellwoods","Bar","East Asian","Single Location"
"B5JCODx4728Ce2Qca1NFHw","Hanmoto",43.6496209524867,-79.4230549132067,"Medium",4.2,251,466.331161424066,"081","Trinity-Bellwoods","Other","East Asian","Single Location"
"9BKIXfn0JMcVKILLs1mghg","Holy Cow Japanese Steakhouse",43.64993,-79.39145,"High",4.2,194,2528.4745766454,"078","Kensington-Chinatown","Steakhouses","East Asian","Single Location"
"zHNk2BnANwkvHvaXD7yYsg","Té",43.64576,-79.4196739300594,"Medium",3.9,127,207.855762277176,"081","Trinity-Bellwoods","Other","East Asian","Single Location"
"saijdv-vXJrvsCfvr7SZOw","Katsuya",43.65995,-79.37882,"Medium",4.4,545,3847.51156984621,"168","Downtown Yonge East","Other","East Asian","Medium Chain"
"6hGEIpALyUhte4grCY8Hog","The Opium Bar",43.64928,-79.42628,NA,4.3,23,545.146227643332,"084","Little Portugal","Bar","East Asian","Single Location"
"5UgSHCX-V0iXagxUZ9LEXg","Her Chef",43.66457,-79.41292,"Medium",4.6,69,2252.70534393595,"080","Palmerston-Little Italy","Other","East Asian","Single Location"
"PwyLszmQF28p-84afsbAOA","Hakka Wok Hei",43.6501366,-79.4502818,NA,5,4,2316.24335007634,"086","Roncesvalles","Other","South Asian","Single Location"
"domzjJcaFF_R693W4SM8jg","Bảnk Bao",43.655946,-79.39889,NA,4.4,14,2211.28317185885,"078","Kensington-Chinatown","Other","East Asian","Single Location"
"pZ5Xqo784Ppkol2WERFWBA","Jaffna Street Food",43.6543,-79.39041,NA,4.7,6,2730.52650077424,"078","Kensington-Chinatown","Fast Food","South Asian","Single Location"
"3aTV63AWpUObtZhrFAp5nA","Three Monks and a Duck",43.64605,-79.40897,NA,3.9,85,1065.63231213527,"162","West Queen West","Bar","East Asian","Single Location"
"snw9iNNLpFYZeHotW00uVA","Lee",43.6471911512614,-79.3993497,"High",4.1,795,1850.59148732273,"164","Wellington Place","Other","East Asian","Single Location"
"dy0O7DaSUd49NZWSEtvz_g","Foxley Bistro and Bar",43.64865,-79.42024,"High",4.1,144,387.99395422274,"081","Trinity-Bellwoods","Bar","East Asian","Single Location"
"BUYhAuPrKRVGov12Q8vsIw","Soya Mandarin Kitchen",43.65588,-79.39329,NA,4.1,47,2599.31951692102,"078","Kensington-Chinatown","Other","East Asian","Single Location"
"cO1k0ZuTbY4ppXDbClGhZA","Silk Road Lounge & Restaurant",43.64503,-79.41608,NA,4.3,12,497.813491900203,"081","Trinity-Bellwoods","Bar","East Asian","Single Location"
"gcD74zZvgd_sAO0R1o4waQ","Garleek Kitchen",43.64046,-79.43811,"Medium",4.6,60,1397.86817516508,"086","Roncesvalles","Brunch/Breakfast","South Asian","Single Location"
"lIGkmfP13Kb4VjbiCgj0Xg","Jade",43.673972,-79.3959985889549,NA,5,3,3807.30118799876,"095","Annex","Other","East Asian","Single Location"
"7i0kkZ79MMkI59qCGilltQ","Norling",43.6403518512511,-79.4385082,"Low",4.1,74,1428.45638717281,"086","Roncesvalles","Other","South Asian","Single Location"
"b7wUWVV01xaa7E0FUNMDiw","DaiLo",43.65574,-79.4098,"High",4.2,349,1522.43455635809,"081","Trinity-Bellwoods","Other","East Asian","Single Location"
"5aYSFNex10jLwTp9mrIZeA","Yubu",43.6586799943055,-79.3950836732984,NA,4,11,2631.75828664491,"078","Kensington-Chinatown","Bar","East Asian","Small Chain"
"n2NRR4N-kmeDvhHJivHGkA","Gyu-Kaku Japanese BBQ",43.6516056,-79.3748825442444,"High",4.1,223,3869.82025907278,"168","Downtown Yonge East","Bar","East Asian","Single Location"
"Vsdbh4cpYb4ZS4AaJSA2Nw","Poong Moon",43.79058,-79.41854,"Medium",4.4,47,16132.6060678879,"036","Newtonbrook West","Other","East Asian","Single Location"
"K5Q2vkF5UpytV9Q1rB-5Yg","Akira Back",43.64541,-79.3923,"Very High",4,230,2388.43504315728,"164","Wellington Place","Other","East Asian","Single Location"
"4eqHtgdXEPG6V-Jzy0MhKw","Miss Things",43.6414601,-79.431879,"High",3.4,168,895.634632477694,"085","South Parkdale","Bar","East Asian","Single Location"
"CajgenexIctPku94HnkSow","Mikaku Udon Bar",43.6639110039464,-79.3685874492667,NA,4.7,12,4777.67111927246,"073","Moss Park","Brunch/Breakfast","East Asian","Single Location"
"yP71_LfUPnGIRqA2g09RoQ","Lake Inez",43.67234,-79.32064,"High",4.4,115,8699.59268452159,"065","Greenwood-Coxwell","Bar","East Asian","Single Location"
"smCdDkC7aWPrpquxhuxSXg","Poppadum",43.672472,-79.3879,NA,4.8,9,4080.06171039005,"095","Annex","Street Food","South Asian","Single Location"
"vO4rIXzsK3aWn1EZ4cHwXQ","Mother Tongue",43.6473760746769,-79.3932983,NA,3.8,85,2337.20375097482,"164","Wellington Place","Bar","East Asian","Single Location"
"a_YDkm5D5W2x8qGBke3qaw","Takoyaki6ix",43.6550705,-79.3999101,NA,4.6,21,2088.83672060197,"078","Kensington-Chinatown","Other","East Asian","Single Location"
"JG9UpsFR6hrqQqsKh_RyaQ","PLANTA Yorkville",43.67028,-79.38945,"Medium",3.9,538,3810.49474675219,"095","Annex","Bar","East Asian","Single Location"
"WN3NSIJQHfxtjf1kV7snVA","Kevin's Taiyaki",43.6638145279363,-79.4162761,"Low",4.5,81,2095.20004818666,"080","Palmerston-Little Italy","Other","East Asian","Single Location"
"S7aRQKxj_IMuA0SBlrMZ5A","Momo Ghar West",43.649973,-79.482693,NA,4.8,5,4889.67568978312,"089","Runnymede-Bloor West Village","Other","East Asian","Single Location"
"uGLAEGqeJa4jtP1Io0sOrg","Mineral",43.67763,-79.38947,NA,4.5,37,4443.67117382001,"098","Rosedale-Moore Park","Other","East Asian","Single Location"
"_5XClj4E5VCIsEscbrrPKg","LoPan",43.65574,-79.4098,"High",4.2,26,1522.43455635809,"081","Trinity-Bellwoods","Bar","East Asian","Single Location"
"fp8h0LdbO5WxiK41oYgZVA","Idle On Bloor",43.6603,-79.43255,"Medium",3.4,12,1844.64351033614,"083","Dufferin Grove","Lounges","East Asian","Single Location"
"OXW2erFOPT-Oov6wChxWYA","Lee Chen Asian Bistro - King",43.6473690555399,-79.3867627903819,"Medium",3.9,231,2861.23752616316,"164","Wellington Place","Other","East Asian","Single Location"
"L41ZNl-dodbQMkckxA7eMA","Thairoomgrand",43.7049801,-79.4077478,"Medium",4.3,33,6717.04454831678,"100","Yonge-Eglinton","Other","East Asian","Single Location"
"mrPohrKI8RLFwnJmB7LKsg","Petit Potato",43.6661844,-79.387415,NA,4,13,3626.03498285757,"169","Bay-Cloverhill","Other","East Asian","Small Chain"
"bNynUUb2uYtHGLSD7mS3Bw","Shangrila Tibetan & Asian Cuisine",43.6397400555351,-79.4415438622399,"Medium",4.1,99,1679.97533400551,"086","Roncesvalles","Diner","South Asian","Single Location"
"IZk4I8rDH7b5WFdx5jmPRA","Pho Lang Van",43.6795756759952,-79.4361752983373,"Medium",4,58,3954.86769186854,"092","Corso Italia-Davenport","Other","East Asian","Single Location"
"N0l4hT7UCywbZ9UEZ1R9kQ","Patois Toronto",43.65202,-79.40816,"Medium",3.7,379,1340.81206689076,"081","Trinity-Bellwoods","Other","East Asian","Single Location"
"WpK-mZ7w-304c78MOEYH6A","Mai Bistro",43.6490027,-79.5285543,"Medium",4.4,102,8564.28625012377,"158","Islington","Other","East Asian","Single Location"
"ZDn09j2BtGBZHPsXv2m4oA","The Lost Land",43.651275,-79.3790426478504,NA,3,3,3533.94666246106,"170","Yonge-Bay Corridor","Other","East Asian","Single Location"
"K2CdjES-IZDDEgetOnf0Vw","One2 Snacks",43.7866073,-79.2767206,"Low",4.5,268,19571.4966999469,"128","Agincourt South-Malvern West","Other","East Asian","Single Location"
"o4EbxgAFBXOYIx8-aMZdgw","My Meatball Place",43.6441043655965,-79.4008460764451,NA,4.7,6,1727.00556795925,"164","Wellington Place","Other","East Asian","Single Location"
"p82Oz-NOHn-MAZQ0jQBkNg","Riki Sushi",43.6623,-79.42287,"Medium",3.7,25,1885.11727764665,"080","Palmerston-Little Italy","Bar","East Asian","Single Location"
"H572i_MvhPy-nEegESfzvQ","Wok Boyz",43.638292,-79.41841,NA,3.7,6,878.344208198074,"163","Fort York-Liberty Village","Fast Food","East Asian","Single Location"
"U2fAN5cZTMKm9mvQns-VKw","PLANTA Queen Entertainment District",43.650769,-79.388083,"High",4.1,205,2810.74706762899,"078","Kensington-Chinatown","Bar","East Asian","Single Location"
"TqyG5p4KgszxsezpgDFsCw","Katsuya",43.731431,-79.4591441,"Medium",4.8,48,10008.7140696261,"155","Downsview","Other","East Asian","Medium Chain"
"LWI8ULsw0X1FpInux4Tg5Q","Martino's Pizza & Asian Fusion Kitchen",43.675568,-79.4036442,"Medium",3.8,50,3665.35669619222,"095","Annex","Street Food","East Asian","Single Location"
"ttuEwktrkmh3TUlSFPZqAA","Banh Mi Boys",43.6571516683436,-79.3808931703301,"Low",4.1,530,3570.12246565653,"168","Downtown Yonge East","Other","East Asian","Small Chain"
"7pUj3i1KjCE5jEgcqhccng","ON/OFF",43.777683,-79.41466,"Medium",4.4,65,14715.9588841221,"151","Yonge-Doris","Bar","East Asian","Single Location"
"vQGZjrDiDBuznOkUevBNzw","Los Vietnamita Taqueria Shop",43.7054433643552,-79.3136256560683,NA,4.4,37,10988.8016503457,"054","O'Connor-Parkview","Other","East Asian","Single Location"
"ZhACHVw9k438Z3i-Gw9BHA","Banh Mi Boys",43.7092,-79.39857,"Low",4.2,130,7333.47531505779,"173","North Toronto","Other","East Asian","Small Chain"
"NyQey4tR7en-l24ChgYEag","Food & Liquor",43.6396914930533,-79.4418681207147,"Medium",3.9,26,1706.1736614485,"086","Roncesvalles","Bar","East Asian","Single Location"
"bLtC8xJXkd1b6MT0KjnSvw","The Captain's Boil",43.66237,-79.38378,"Medium",3.4,242,3615.56089786615,"169","Bay-Cloverhill","Other","East Asian","Medium Chain"
"5-b5tD7VLlDwundbe85l7A","Sukhothai",43.6538304437445,-79.3544602345607,NA,3.1,59,5530.95278007522,"166","St Lawrence-East Bayfront-The Islands","Other","East Asian","Single Location"
"AakkkTuGZA2KBodKi2_u8A","Pho Phuong Vietnamese Restaurant ",43.64967,-79.43513,"Medium",3.3,68,1137.60021482812,"084","Little Portugal","Other","East Asian","Single Location"
"KAyQ07GqrfP1VW5MhxvEHg","Cafe Pho Nho",43.65219,-79.44751,"Low",3.7,84,2172.64421348755,"086","Roncesvalles","Bar","East Asian","Single Location"
"ctTiEiUTY_FvnZ0ovBeZWQ","Ho Ga Oriental Cuisine",43.64768,-79.38294,"Low",4,44,3163.20698398933,"170","Yonge-Bay Corridor","Other","East Asian","Single Location"
"tCJjzxEcTWwdqIpIvZEP-g","Yummy House",43.66954,-79.3359,"Low",4.3,17,7442.50015528428,"070","South Riverdale","Fast Food","East Asian","Single Location"
"3cAy1gxlprn1ue0q3L_ziw","Lee Chen Bistro",43.672372,-79.387436,"Medium",3.6,183,4096.42878142303,"098","Rosedale-Moore Park","Bar","East Asian","Single Location"
"EwWXzIUdEWFT2CUJJBbGRg","Thien Tam Restaurant",43.665229,-79.466295,NA,4.3,3,4161.18365125821,"090","Junction Area","Other","East Asian","Single Location"
"a_gJI14yubijGv2fTUDv6w","Chillax Eatery & Mart",43.7584367078675,-79.4097755,NA,4.5,6,12601.0934711937,"153","Avondale","Brunch/Breakfast","East Asian","Single Location"
"K3aA7iJGoYsJh0cl8O1w-w","Thairoomgrand - Etobicoke",43.6446667,-79.5329271,NA,4.7,19,8907.88305837823,"158","Islington","Other","East Asian","Single Location"
"0uEidTfcs-9GAMJXLvIYTw","Blooming Orchid",43.70327,-79.41388,NA,4.4,29,6457.20192649908,"101","Forest Hill South","Bar","East Asian","Single Location"
"mBe1a6rjq5d0bbWl6rRDZg","Neon Tiger",43.67726,-79.39828,NA,4.2,6,4024.53498044335,"095","Annex","Other","East Asian","Single Location"
"1mXyISSj1oZKr25BW236aA","Makan",43.64996,-79.3891,NA,3.4,13,2708.65009145437,"164","Wellington Place","Other","East Asian","Single Location"
"e178giuAicIhb16ymOtiBg","R&D Restaurant",43.651598,-79.397212,"High",3.6,324,2124.81432666174,"078","Kensington-Chinatown","Other","East Asian","Single Location"
"TMn3xLDiI9_y-AgTYb1gSA","The Captain's Boil",43.71582,-79.39989,NA,4,41,8023.80523151018,"099","Mount Pleasant East","Other","East Asian","Medium Chain"
"nO3kpfkIrnoKRb4cizX0vg","Danico",43.6568521843797,-79.4074500356919,NA,4.5,13,1736.38508691938,"079","University","Bar","European","Single Location"
"xiJ6QkxxXkcRewctfhJneg","Coconut Grove",43.7768071916995,-79.3465729055884,NA,3.8,5,15819.3054012203,"047","Don Valley Village","Other","South Asian","Single Location"
"sOACp1Z6SOihe1HMzzqK5Q","Tiny Cafe",43.6407,-79.43815,NA,4.1,10,1391.21202843296,"086","Roncesvalles","Other","East Asian","Single Location"
"kR7DSZx4ufRKxFKTdhlRIg","Nozomi Fusion Kitchen",43.7270499,-79.4312769,"Medium",4.6,28,9096.14949748558,"039","Bedford Park-Nortown","Street Food","East Asian","Single Location"
"lIEahf71RLPJ_rFBJ5fqzQ","Sala Modern Thai Kitchen & Bar",43.6819991223223,-79.3307374790311,"Medium",4.5,217,8405.7442796603,"066","Danforth","Other","East Asian","Single Location"
"Dib3cIHWyDVKDZTMm580iQ","Rolltation",43.66939,-79.3867099,"Medium",4.1,49,3912.97795501734,"169","Bay-Cloverhill","Bar","East Asian","Medium Chain"
"XOkqRJBS6HwTVlrCACAZFw","Queen Mother Cafe",43.6503804,-79.3891296,"Medium",3.7,319,2718.32728791956,"078","Kensington-Chinatown","Other","East Asian","Single Location"
"gVILTnDFDsVuVdxFVkRK7A","The Captain's Boil",43.6156501,-79.5587629,"Medium",3.8,82,11478.3054395018,"159","Etobicoke City Centre","Other","East Asian","Medium Chain"
"wl_owb-SQ2LvJdmAUcXCxw","SweetLulu",43.64651,-79.40821,"Medium",3.6,9,1133.86728333227,"081","Trinity-Bellwoods","Other","East Asian","Single Location"
"1KUrEW2O4xiyzej3G_T5ng","Moegi Sushi",43.6495978,-79.3655404,NA,4.2,10,4583.98213745455,"166","St Lawrence-East Bayfront-The Islands","Bar","East Asian","Single Location"
"wL5yGvlL1zXZ4EPJ8d0hIA","Rolltation",43.707588,-79.398147,"Medium",4,111,7167.08464769905,"173","North Toronto","Bar","East Asian","Medium Chain"
"QhAmKLX_0AgQe5HLxode9Q","Nakamori",43.73692,-79.24466,"High",4.1,123,17530.1838824494,"138","Eglinton East","Bar","East Asian","Single Location"
"v1M2DI3sATaUkHfZEuDStw","Ka Chi",43.65379,-79.39505,"Medium",3.2,126,2372.67009884689,"078","Kensington-Chinatown","Other","East Asian","Single Location"
"W32dIFI1_rnfO3gtMZhvMw","Vege Delight",43.655013,-79.3863578,NA,4.7,6,3080.81909953791,"170","Yonge-Bay Corridor","Other","East Asian","Single Location"
"nc2X2BgguGvhYRAr9PLRVA","AP Restaurants",43.66965,-79.38874,NA,3.8,32,3807.2353993474,"169","Bay-Cloverhill","Bar","East Asian","Single Location"
"dNYl4w8LjqSiLGwXHg8o5g","Poke Eats",43.669531,-79.3033394,NA,5,3,9931.24452238789,"063","The Beaches","Other","East Asian","Small Chain"
"bGuxRBRKv7i1BKKfGbjxEw","Katana on Bay",43.6503044,-79.3804595,"High",3.7,97,3403.24881427312,"170","Yonge-Bay Corridor","Bar","East Asian","Single Location"
"SZmm3wOx_fcC2rblUVewGA","New Treasure",43.65554,-79.38549,"Low",3.3,72,3162.4458860837,"170","Yonge-Bay Corridor","Other","East Asian","Single Location"
"Rnck2nc0j-FbolNiae2grg","Golden Asian Cuisine",43.71138,-79.5652008,"Medium",4,39,13676.3125215233,"001","West Humber-Clairville","Other","East Asian","Single Location"
"-HwprJh-Bve1pcDH8_UFeQ","Chi Dim Sum",43.7106303841666,-79.3990050412378,NA,3.4,31,7482.2493675532,"173","North Toronto","Other","East Asian","Single Location"
"0HEezLfueKWLCy0Jeo6MiA","Rolltation",43.6612099,-79.38264,"Medium",3.3,33,3609.56923593134,"168","Downtown Yonge East","Fast Food","East Asian","Medium Chain"
"-Far2ZzTrDQaqfe_BUlaPQ","Little DaiLo",43.65035,-79.38378,NA,3.5,11,3125.85473180932,"170","Yonge-Bay Corridor","Other","European","Single Location"
"4wi_z5qkTbopcQgK5TCq-A","Meataa Seven Charcoal BBQ",43.77262,-79.4133,NA,4.2,6,14154.9263850379,"151","Yonge-Doris","Bar","East Asian","Single Location"
"wakI-46P1BLMnf4zdH3V2g","Westwood Grill",43.65995,-79.4796,"Medium",2.7,67,4891.92268168151,"088","High Park North","Other","East Asian","Single Location"
"pLj8MPkuK6OH9EtB_-6Szg","Canteen",43.65252,-79.39854,"Low",3.6,34,2054.52199448059,"078","Kensington-Chinatown","Other","East Asian","Single Location"
"fh1D2eUnw5QWgDAWuCq7RQ","Baili Eatery and Lounge",43.791347,-79.418827,NA,4,5,16224.2156362215,"036","Newtonbrook West","Other","East Asian","Single Location"
"V_XIK99ysZ2yjc6TUiPw2Q","Lahore Chaat & Desi Burger House",43.6719052,-79.3246705947833,"Low",3.7,19,8380.31590361898,"065","Greenwood-Coxwell","Other","South Asian","Single Location"
"_F1_05YYlvePzomZ_NFijA","To-ne Sushi",43.64877,-79.39785,"Medium",3.8,232,1994.1126925458,"078","Kensington-Chinatown","Bar","East Asian","Single Location"
"57_msr8gjNakjGO-1f6B_g","Angus Pho House",43.7770441,-79.4146454,"Low",3.6,261,14643.0099729067,"151","Yonge-Doris","Other","East Asian","Single Location"
"5nyKUHibR4GCs6ojVljFdA","Spring Sushi",43.6566811,-79.3806534,"High",3.1,397,3557.76619470558,"168","Downtown Yonge East","Other","East Asian","Single Location"
"C8_zdU7zGLUK3uC4e5AepQ","MeNami",43.7778302326935,-79.4147801,"Medium",3.8,579,14729.9045859192,"151","Yonge-Doris","Other","East Asian","Single Location"
"OS5IyYEXgYV9_Z0iS4MkOw","Yip's Kitchen",43.6488329,-79.3715085,"Medium",4,21,4097.87188896748,"166","St Lawrence-East Bayfront-The Islands","Other","East Asian","Single Location"
"0sUd4i07uoQrE9DVMCLOuw","Green Mango Express",43.62227,-79.52182,"Medium",3.9,27,8421.66392145947,"159","Etobicoke City Centre","Other","East Asian","Single Location"
"B3pNBzYFqrheh4fib01vPQ","The Peoples Eatery",43.66306,-79.38631,NA,3.3,3,3489.03122526633,"169","Bay-Cloverhill","Other","East Asian","Single Location"
"wKmDYX_XuYCbIerCbYfWnQ","The Captain's Boil",43.7548660252231,-79.3496702260202,"Medium",3,109,13490.3571383635,"042","Banbury-Don Mills","Other","East Asian","Medium Chain"
"9bC9-prBs-xp8IIi1g9Cyg","ChiChop",43.7085,-79.39903,NA,3.2,6,7256.84510507907,"100","Yonge-Eglinton","Other","East Asian","Single Location"
"N8gYomVaiSiss513snlxhg","Moonlight Korean Restaurant",43.7911058,-79.4452162,NA,1.8,11,16384.9694696817,"036","Newtonbrook West","Other","East Asian","Single Location"
"r5mfB_yDHbCK6kRUUTrzUQ","Yummy Delight",43.70069,-79.5171,NA,4.3,4,9790.95487235098,"113","Weston","Other","East Asian","Single Location"
"b6Rv6vwJPaMAQGuSsqPPPQ","Pho East",43.665809,-79.351546,"Medium",3.3,33,6119.41782749462,"068","North Riverdale","Other","East Asian","Single Location"
"OQ8ttss7H4b_syk9MJRTHg","Bowl & Snacks",43.660548,-79.366081,NA,3.7,3,4822.17775864311,"072","Regent Park","Bar","East Asian","Single Location"
"CDSNzkBDwWuDF5eRiJBrcA","Barrio Fiesta - The Original",43.7060386,-79.3446241,NA,2.6,10,9085.61889083364,"055","Thorncliffe Park","Other","East Asian","Single Location"
"tEUvjMgAqwE0OE0BIIe6Fw","Fusia Asian Kitchen",43.65621,-79.38326,"Low",1.5,16,3398.80384452471,"170","Yonge-Bay Corridor","Other","East Asian","Small Chain"
"HDLhW6R6pUszuAzcmnYNYw","Vasan's Tacos",43.765896738234,-79.2591020464897,NA,4.2,5,18741.5613948513,"156","Bendale-Glen Andrew","Other","East Asian","Single Location"
"BdGtQGhJ8rxk-5bbFl8qxQ","Sushi On Gerrard",43.6707643711012,-79.3280821149182,NA,4,3,8078.91449138964,"070","South Riverdale","Bar","East Asian","Single Location"
"cUuDnTAya4rx5tuh7HbGyw","Mean Bao",43.6504202641376,-79.3800179124644,NA,2.6,5,3440.37199103992,"170","Yonge-Bay Corridor","Other","East Asian","Small Chain"
"IithJLAUG3gWcHw9EKLLFA","Kim Kim Indian Hakka Chinese Restaurant",43.7535081,-79.2764809,"Low",4,90,16780.8221889381,"126","Dorset Park","Other","East Asian","Single Location"
"Dvmwg8kILj2ZIZ7xRKNt-w","Chinese Burger",43.7759134701628,-79.4135650992393,"Medium",3.7,9,14521.3032605183,"151","Yonge-Doris","Street Food","East Asian","Single Location"
"2VtTzskzFcwVnXgGYsY1lQ","The Captain's Boil",43.78797,-79.2647099,"Medium",3.7,86,20275.9370023787,"128","Agincourt South-Malvern West","Other","East Asian","Medium Chain"
"Cp01l4XUjd-6x-6v4KiIEg","K&B Sushi",43.62229,-79.52245,"Medium",2.7,235,8471.3942413435,"159","Etobicoke City Centre","Bar","East Asian","Single Location"
"j9YFHVQqxM_qKHIc4nck-A","Wong's Asian Cuisine",43.7472917,-79.2838383064401,"Low",4.1,48,15873.5209655913,"126","Dorset Park","Other","East Asian","Single Location"
"9JwJUt6C6ejrqHpCON6_9Q","Ehwa Uptown",43.76299,-79.41164,NA,4.1,22,13099.8735052696,"038","Lansing-Westgate","Other","East Asian","Single Location"
"A7glw1TI5YmoIQWoMhONpQ","Mr Thai",43.68963,-79.39444,"Medium",2.4,52,5396.51441323873,"098","Rosedale-Moore Park","Other","East Asian","Single Location"
"IJZrpASpveRG_BZAnP_z3w","Satay On the Road",43.70552,-79.37536,"Medium",2.8,44,7672.53014015996,"099","Mount Pleasant East","Other","East Asian","Small Chain"
"J5ePcNjjnPiSVulu5vvrYg","Sean's Twisted",43.72376,-79.49382,NA,3.5,6,10436.5908814554,"154","Oakdale-Beverley Heights","Other","East Asian","Single Location"
"2GkDExKrdVRDfBKja5Ip0w","Mr Fish",43.7735385543648,-79.4136157259345,NA,3.9,17,14257.3367629832,"151","Yonge-Doris","Other","East Asian","Single Location"
"5-qLovwOO5lJeRNfIX4DXA","Pho Toronto",43.7427267305074,-79.31364024,NA,4.1,23,13898.4130603127,"149","Parkwoods-O'Connor Hills","Other","East Asian","Single Location"
"7Gl_h0Dz4r3xEILhe6taNA","Hakka Legend Asian Cuisine",43.776368,-79.235003,"Medium",3.4,92,20935.5834399926,"142","Woburn North","Other","East Asian","Small Chain"
"Q8-4uLtLJeXHJZZsr2Zexw","Sakura Garden",43.73354,-79.41916,"Medium",3.4,62,9792.96348840538,"039","Bedford Park-Nortown","Bar","East Asian","Single Location"
"dfDmylDjZAccgMyhYPbZaA","Satay On the Road",43.73529,-79.4195699,"Medium",3.2,72,9989.37290933693,"039","Bedford Park-Nortown","Other","East Asian","Small Chain"
"y745jABH5NyJYSO6fHSVUg","New York Fried Chicken & Our Kitchen",43.75362,-79.54228,NA,3.7,3,15338.797230666,"021","Humber Summit","Other","East Asian","Single Location"
"Bo9uuPiAsq_z02eb87N41g","Sushi Legend",43.7906163405589,-79.365949574113,"High",3.6,283,16761.2054649529,"048","Hillcrest Village","Bar","East Asian","Single Location"
"k9gaDDBYOOdVn0dfEMSntw","Crane Express",43.76251,-79.22596,NA,4,4,20451.8193797694,"141","Golfdale-Cedarbrae-Woburn","Other","East Asian","Small Chain"
"KK7H1bVOMAJnDqMhBv2zpA","Chung Moi Chinese Restaurant",43.7324399,-79.26944,"Medium",3.9,70,15640.2686003646,"125","Ionview","Other","East Asian","Single Location"
"Om6lrGh8jjgYgLox1dNSFQ","Teriyaki Experience",43.7831718791171,-79.252817225959,NA,3.8,6,20489.7786848211,"128","Agincourt South-Malvern West","Other","East Asian","Small Chain"
"HIlocHRZaMUucOFK-cxukg","Simply Kitchen",43.7810258,-79.2474109,NA,3.7,3,20596.8091985793,"142","Woburn North","Other","East Asian","Single Location"
"emyCP3Ry2SbpNrwRAtm9PQ","Pyung Won House",43.77941,-79.415798,"Medium",2.5,83,14902.362324726,"037","Willowdale West","Other","East Asian","Single Location"
"I9XqZhIwBSWecIewm4p49Q","ADDA Bengali Kitchen and Catering",43.69397,-79.27756,NA,4.5,21,12828.1828677352,"121","Oakridge","Other","South Asian","Single Location"
"CL1wZ2PuzUXG6PzjRZQICw","Ghoroaa Restaurant",43.69072,-79.29136,"Low",3.6,25,11663.3970347553,"061","Taylor-Massey","Other","South Asian","Single Location"
"ktf_QNZaJ1IvnXrncZCQqw","Indian Biriyani House",43.65497,-79.38648,"Low",2.6,78,3061.00207439531,"170","Yonge-Bay Corridor","Other","South Asian","Single Location"
"AB8iyTHUEC7WCsoKWv49aQ","Masala King",43.70549,-79.25228,NA,4.1,10,15206.3529155521,"122","Birchcliffe-Cliffside","Other","South Asian","Single Location"
"LsQLGpis4hTqusAsqE28YQ","Dhaka Biryani House",43.69234,-79.28247,NA,2.8,4,12387.3556555796,"121","Oakridge","Other","South Asian","Single Location"
"D9IvgZeBD2qFfhIRbOcBFQ","Cafe D Taj",43.69397,-79.2775599,"Medium",4,15,12828.1828677352,"121","Oakridge","Other","South Asian","Single Location"
"XE1DgD6as8UHpmz0XK45qg","Premium Sweets",43.7224684256342,-79.2889939299142,NA,3.7,46,13714.2790805528,"120","Clairlea-Birchmount","Brunch/Breakfast","South Asian","Small Chain"
"L_QLIazGQUSJt6oEU_ZGMQ","Ruposhi Bangla Restaurant",43.752476,-79.26217,NA,4,4,17515.8104822406,"156","Bendale-Glen Andrew","Other","South Asian","Single Location"
"awpWHkiAHA5udxDwV7d7Zg","Adi Biryani & Kabab House",43.7072792,-79.2695618,NA,3.5,4,14114.1192392332,"120","Clairlea-Birchmount","Other","South Asian","Single Location"
"9pp4WAPcvgwA_3FsHmMXBA","Chawk Bazar South Asian Eatery",43.74264,-79.3083599,"Medium",3.5,55,14174.1375456647,"119","Wexford/Maryvale","Other","South Asian","Single Location"
"GzmCPRr0sZHtkbYunG8WtA","Ghoroaa Classic",43.69444,-79.27537,NA,2.4,5,13006.3406477765,"121","Oakridge","Other","South Asian","Single Location"
"wJaT_knXpP549fO0VIvsCw","Al-Mani Grill and Biryani",43.6889,-79.2995,NA,2.4,8,10989.1541247213,"062","East End-Danforth","Other","South Asian","Single Location"
"LG57WrTcnPeuTy6aJy3IYw","Premium Sweets",43.7435481,-79.2177143,"Medium",2.6,5,19730.2323137161,"139","Scarborough Village","Cafe/Bakery","South Asian","Small Chain"
"RyDiwx4xD3Lx8sWHx1aFlQ","Smoque N' Bones",43.6457027819391,-79.4107432752393,"Medium",3.8,439,924.293636554646,"162","West Queen West","Bar","North American","Small Chain"
"N0dQQLb4R0ACN-bacCQTKg","Favorites",43.6473606954857,-79.4201145725201,NA,4.1,50,270.2748731167,"081","Trinity-Bellwoods","Bar","East Asian","Single Location"
"TqMTY6xTHThm0C7J1pJ7Aw","Pig Out BBQ",43.66317,-79.40253,"Medium",4,112,2525.90531484049,"079","University","Bar","North American","Single Location"
"QA30Lo1NlV8SjnkmEkd1-A","Daldongnae Korean BBQ - Christie",43.664348,-79.415688,"High",4.4,116,2163.43349919448,"095","Annex","Bar","East Asian","Single Location"
"nrUoS2wgmJ1LSkFfSlOjvg","Bonimi",43.64513,-79.52041,"Medium",4.5,51,7907.10214147993,"016","Stonegate-Queensway","Cafe/Bakery","European","Single Location"
"RXKFjyJ3X7_WCl5KC4lDhw","Daldongnae Korean BBQ - Dundas Square",43.658244,-79.381345,NA,4.3,56,3570.6029401757,"168","Downtown Yonge East","Bar","East Asian","Single Location"
"OZfhA7YFdXpuec9delNGpg","A BBQ House",43.66709,-79.385695,NA,4.8,6,3796.60832167384,"169","Bay-Cloverhill","Bar","Other","Single Location"
"qR4EIktJfQKc4rnKgBzvtw","Gyubee Japanese Grill - Bloor",43.66716,-79.40047,"High",4.2,353,2970.5402306689,"079","University","Bar","East Asian","Single Location"
"vvapae5E4fnZXWG8Wylzyw","Gyubee Japanese Grill - Dundas",43.6551427,-79.3857634,"High",4.2,262,3121.87707637384,"170","Yonge-Bay Corridor","Bar","East Asian","Single Location"
"wSojc-y-d7MWiGWdy8deCg","Barque Smokehouse",43.6480097,-79.4496592,"Medium",3.9,553,2225.31024113165,"086","Roncesvalles","Bar","Other","Single Location"
"QX5Y_BIxlMG3B3vV1zx1Gw","Cherry Street BBQ",43.6456,-79.35229,"Medium",3.9,221,5626.64359633405,"070","South Riverdale","Bar","Other","Single Location"
"FvjimdPd4hMEcjWIimsbgA","Good Brothers BBQ",43.6532693562806,-79.3969745587187,NA,4.3,19,2209.02355482968,"078","Kensington-Chinatown","Bar","East Asian","Single Location"
"FhZaBOpSqf0pQmsEYxUPyg","Zakkushi on Queen West",43.647115,-79.405517,"High",4.4,63,1356.98780790367,"081","Trinity-Bellwoods","Bar","East Asian","Single Location"
"X7R84JGGwrpEqm9h2rOXdA","Hello Cupbop",43.6538385319017,-79.3951393291354,NA,4.5,6,2369.66481163894,"078","Kensington-Chinatown","Bar","East Asian","Single Location"
"ct1BldgnOvR_iF8fVLD6hA","Smoque N' Bones",43.6561129204886,-79.3937432393432,NA,4,24,2579.13371380208,"078","Kensington-Chinatown","Bar","North American","Small Chain"
"dg5hk2uYsxrcLs7St66C_A","Mapo Korean BBQ",43.6639221406138,-79.4177539,"Medium",4.1,79,2083.05984124938,"095","Annex","Bar","East Asian","Single Location"
"6mUidMn4-TEj3_-LD3lsSQ","St. Matthew's BBQ Chicken",43.68209,-79.46899,"Medium",4.4,33,5545.25308032641,"110","Keelesdale-Eglinton West","Bar","European","Single Location"
"4BPxSdtChFilKRjbDR-k9Q","The Backyard Smokehouse",43.6750778706599,-79.4067638772985,NA,3.7,26,3519.34150323927,"095","Annex","Bar","Other","Single Location"
"WsrsfgYl-Rrz6D2zBNCn_w","Taisho Japanese Grill",43.6559052477579,-79.3931938253142,NA,4.1,40,2608.1367370432,"078","Kensington-Chinatown","Bar","East Asian","Single Location"
"fQwB9Z98YEhkJit7c3z51A","The Carbon Bar",43.653088,-79.374829,"High",3.9,440,3905.53737828438,"168","Downtown Yonge East","Bar","North American","Small Chain"
"MHRv_rT0JBjIoWB-CcGMCg","Mapo Pocha Soju Bar",43.6640448,-79.4167613602252,NA,4.5,8,2111.6641951266,"095","Annex","Bar","East Asian","Single Location"
"QrUNtCTca7HbF_t82xs8Ig","Thong Lor",43.6670164571294,-79.381284378469,NA,5,3,4072.89276208974,"167","Church-Wellesley","Bar","East Asian","Single Location"
"QABMhiuARzojyPYCATc2Pw","Dukes Refresher",43.648542,-79.372899,"Medium",4.3,18,3982.76252985557,"166","St Lawrence-East Bayfront-The Islands","Bar","North American","Single Location"
"8VHLeEC7kH6nwn1HnqwMKQ","Dang Smoke BBQ",43.6617164611816,-79.3908462524414,"Low",4.8,12,3230.68280172305,"169","Bay-Cloverhill","Bar","Other","Single Location"
"xDmVyd_xl0Hsf3hFmYwrHg","Beach Hill Smokehouse",43.68409,-79.3005,"Medium",4.3,164,10699.255870156,"062","East End-Danforth","Cafe/Bakery","Other","Small Chain"
"DLkaSKMoeeQO-_1C_lzh2A","Bairrada Churrasqueira Grill",43.65329,-79.42868,"Medium",3.2,135,1013.87138876714,"083","Dufferin Grove","Bar","European","Small Chain"
"dfqLhdQY9e6EiXMk9t-8WQ","Martins Churrasqueira",43.6665079966188,-79.497883,NA,3.6,17,6520.60742954756,"111","Rockcliffe-Smythe","Cafe/Bakery","European","Single Location"
"InS3fIio8ktbWUhgO3ZuIw","Beach Hill Smokehouse",43.6515982309058,-79.4749065842065,NA,4.5,14,4293.06069285864,"088","High Park North","Bar","Other","Small Chain"
"gvM3YlaP8HWenylTkGFYUw","Toronto Island BBQ & Beer",43.6233516,-79.3786292,"Medium",2.7,52,4284.7624438075,"166","St Lawrence-East Bayfront-The Islands","Bar","Other","Single Location"
"tX6kAoxMCJjLU5BikGpUdA","Stop BBQ Chicken",43.66585,-79.43811,"Low",4.1,16,2601.46557171249,"171","Junction-Wallace Emerson","Bar","European","Single Location"
"m4veInBYwqlm49Hbj5rE6g","Mr Yes Noodlebar",43.6573187287276,-79.4002665,NA,3.3,4,2203.90591749916,"078","Kensington-Chinatown","Bar","East Asian","Single Location"
"CY3N_T_35gqOXkwQbSeSTA","Hong Fatt B-B-Q",43.6532,-79.39585,"Low",3.9,65,2288.25031816227,"078","Kensington-Chinatown","Bar","East Asian","Single Location"
"NOIXp-AUbEGN-3mgtDGITA","Havana Sanguich",43.6500663,-79.3913874,NA,4.6,16,2533.35910539122,"078","Kensington-Chinatown","Bar","Latin American","Single Location"
"xdcUdYGDb0oGZvRamlUyxw","New Lanzhou Noodle Restaurant",43.6557856913438,-79.3937187641859,NA,4,4,2564.40887086138,"078","Kensington-Chinatown","Bar","Other","Single Location"
"E3fK-R2ShkZc6tIta_3pbw","Rui's  BBQ",43.6826,-79.46472,"Low",4.2,17,5360.26875567947,"110","Keelesdale-Eglinton West","Bar","European","Single Location"
"j8bZqp-LVDLd19zIW3HaBA","Alpha’s Shawarma",43.6473362,-79.404599,NA,4.5,30,1434.1560851269,"081","Trinity-Bellwoods","Bar","Mediterranean","Single Location"
"gWainRDwQaDg7YRZAaotdw","Kasai Grill House",43.65532,-79.41615,"Medium",3.6,80,1198.44812231252,"080","Palmerston-Little Italy","Bar","East Asian","Single Location"
"a_2yshMTGJIBRvSrQJzl0A","Dave's Genuine Deli",43.6471980613827,-79.3994129446029,NA,3.3,4,1845.60976805373,"164","Wellington Place","Bar","Other","Single Location"
"kmTPecVJV-1aEP1rapNDGw","Churrasqueira Martins",43.680761,-79.473499,"Medium",3.5,87,5692.93300613893,"110","Keelesdale-Eglinton West","Bar","European","Single Location"
"NsYGSuyIhl5e7E12N5QXJA","Omiwol",43.7709,-79.33207,NA,4.5,12,15718.0432257481,"053","Henry Farm","Bar","East Asian","Single Location"
"ALkOqlWODyxPg5VSp0HLrg","Zakkushi On Carlton",43.66343,-79.37062,"High",4,352,4606.0571133018,"073","Moss Park","Bar","East Asian","Single Location"
"G7lpRqDIIKiDoHCu-UPNDA","Honestly Good",43.6117498085079,-79.5574985,NA,4.5,6,11515.0861469931,"159","Etobicoke City Centre","Bar","Other","Single Location"
"WdB_1TDZanjfBcT2Xj5Ljg","Boo Radley's Junction Bar and Grill",43.66614,-79.45028,"Medium",3.4,50,3215.31980972784,"171","Junction-Wallace Emerson","Bar","Other","Single Location"
"AR-ewpzqQnx0NYxZo72Wow","Mix2 Grill & Hot Pot",43.65375,-79.39568,NA,3.7,43,2318.92889878274,"078","Kensington-Chinatown","Bar","Other","Single Location"
"OllK5_S-7svgSwbUfx1xYA","King's Noodle Restaurant",43.6531,-79.3985,"Medium",3.3,465,2086.16145023867,"078","Kensington-Chinatown","Bar","East Asian","Single Location"
"A1t8v4bWahSC4TrVTiy1XA","Benny’s Barbecue",43.7104385970068,-79.3989319102005,NA,4.1,28,7463.07520356578,"173","North Toronto","Bar","Other","Single Location"
"7EZGYd_9PXWfRu04-vzKKA","Pita Land",43.66528,-79.40358,"Medium",4.5,15,2671.14641950381,"079","University","Bar","Middle Eastern","Large Chain"
"UWUP5urWlEuZKb1YMshiSg","Lee Yakiniku",43.773455,-79.414284,NA,3.3,27,14244.1049616571,"037","Willowdale West","Bar","East Asian","Single Location"
"2Q89PhkcyT9uZnQORmqMKg","House of Gourmet",43.65336,-79.39718,"Medium",3.5,470,2195.4428844974,"078","Kensington-Chinatown","Bar","Other","Single Location"
"fiLcl_-nQAq0LSGdviznJA","Long Time No See",43.65318,-79.39524,"Medium",3.2,21,2334.21940553069,"078","Kensington-Chinatown","Bar","East Asian","Single Location"
"o6QjaJh73eOSWu7wwc8k_g","Zao Bar And Grill",43.65318,-79.39524,NA,4.3,3,2334.22345814083,"078","Kensington-Chinatown","Bar","East Asian","Single Location"
"ZGtv3ROGb2TqZil9Ptek3A","Churrasco of St Lawrence",43.6490099,-79.37184,"Low",3.9,45,4081.64658609712,"166","St Lawrence-East Bayfront-The Islands","Bar","Other","Single Location"
"0LkgwaTMvYaU2V0JDRNOjQ","Scotty Bons Caribbean Grill",43.6225455993286,-79.5213967268691,NA,4.3,10,8378.32309433522,"159","Etobicoke City Centre","Bar","Latin American","Small Chain"
"Sc4pUTYgI7FQb1i8aa0csg","Churrasco of St Clair",43.68155,-79.42527,"Medium",3.4,50,4019.61088164117,"094","Wychwood","Bar","European","Single Location"
"6hkHrWb82XfJdZ-SJmCKCg","Wok & Roast Chinese BBQ",43.66505,-79.35218,"Low",3.4,111,6044.61774845514,"070","South Riverdale","Bar","East Asian","Single Location"
"9baxxLTKt6gBlqBjY4AUNg","Smokeshow BBQ & Brew",43.7071776,-79.3900127,NA,2.4,21,7333.99993023741,"174","South Eglinton-Davisville","Bar","Other","Single Location"
"0JCXUSE0f0SExGnVWuQWbQ","Flame & Smoke",43.6515921,-79.4040568,NA,3.3,3,1612.59263527291,"078","Kensington-Chinatown","Bar","Other","Single Location"
"Rex5_2j_ao7XF9wx8nT7rA","Bbq Chicken and Pub",43.677933263403,-79.3491759896278,NA,4.6,7,6896.40325366287,"068","North Riverdale","Bar","Other","Single Location"
"tGBeFfwXCUZOsb0YWiMWIA","Ka Chi Korean Restaurant",43.65447,-79.39933,"Low",3.7,160,2092.85156117272,"078","Kensington-Chinatown","Bar","East Asian","Single Location"
"EKeck5myBgPqy2ShyGEjHw","AAA Bar",43.65178,-79.37272,"Medium",3.5,127,4034.1570119257,"168","Downtown Yonge East","Bar","Other","Single Location"
"nktQ_aBRp5CmVOkXR0Mz1g","Arisu Korean BBQ & Sushi",43.6651,-79.41265,"Medium",3.4,238,2311.59787791297,"095","Annex","Bar","East Asian","Single Location"
"9LimxWLM3URfrCcQsUJ3yg","Breakwall BBQ",43.6693242,-79.304498,"Medium",4.1,71,9835.30572424201,"063","The Beaches","Bar","North American","Single Location"
"08eeGaILD8rg93S1x-p-ow","Lung Tung Bbq Food",43.78537,-79.27748,"Low",4.3,23,19350.52539905,"128","Agincourt South-Malvern West","Bar","Other","Single Location"
"_uozYXJl42wCax5HG5kU0Q","Rodeo Brazilian Steakhouse",43.6762554,-79.3581314,"High",3.1,106,6188.82973139224,"068","North Riverdale","Bar","Other","Single Location"
"-4uT6QFVaRtc2Zmxvtd9Vg","BBQ Express",43.6703239574042,-79.3906814977527,NA,4.5,15,3751.95186745822,"095","Annex","Bar","Other","Single Location"
"35NxfCGKzkuy224xYYrSPA","Aragoz",43.7383249961754,-79.2183214053512,NA,4.5,13,19374.5292943616,"139","Scarborough Village","Bar","Middle Eastern","Single Location"
"lxnhCO-lBalLySOGiyfgWQ","Yummy Wok N Bbq House",43.75623,-79.51813,"Low",4,17,14545.1963016855,"025","Glenfield-Jane Heights","Bar","Other","Single Location"
"mlTrhDLyVCzgyvtHQyYkuw","Some Time BBQ Grill Restaurant & L.L.B.O.",43.65578,-79.39366,NA,2.8,4,2565.62136779122,"078","Kensington-Chinatown","Bar","East Asian","Single Location"
"yhDAzBBjFujZbHwBPfE2eQ","Daldongnae Korean BBQ - Empress",43.770782,-79.41295,"High",4,128,13953.3784678708,"151","Yonge-Doris","Bar","East Asian","Single Location"
"vLg-vz5lVDrxCDafWEGbfA","Shinta Japanese BBQ",43.76828,-79.41223,"High",4.1,91,13725.7449007017,"151","Yonge-Doris","Bar","East Asian","Single Location"
"kyo4ePnymGR2wC-rEKTtwQ","KS² The Halal Steak House",43.7157260439219,-79.2593867,NA,4.6,5,15248.1216026478,"120","Clairlea-Birchmount","Bar","Other","Single Location"
"XhJWPRqwVCZKr7vieCKX6g","George's BBQ Chicken",43.6898583,-79.349139428836,"Medium",2.7,31,7675.89422270709,"057","Broadview North","Bar","Other","Single Location"
"oMgDbkk0hlPYFUmwAOVjgQ","Leslieville Pumps",43.6606164337603,-79.3414839601572,"Medium",3.7,128,6710.71933878168,"070","South Riverdale","Bar","Other","Single Location"
"ApDZtcwf021n98tE3jSfsA","Joey Turks Island Grill",43.726617,-79.2938817,NA,3.7,3,13708.3553673649,"119","Wexford/Maryvale","Bar","Latin American","Single Location"
"_rIZa2kEjzGEM6UgOJ-vhw","Pimento Jerk Food Truck",43.6487,-79.38545,NA,4.5,6,3257.44847100239,"170","Yonge-Bay Corridor","Bar","Other","Single Location"
"9pS_dM96NEfYJG75OFKzFQ","BBQ Chicken",43.772094,-79.3453689292073,NA,4,5,15375.5297060632,"053","Henry Farm","Bar","East Asian","Medium Chain"
"C-BBWjzcytDi9qG9ozgVCw","Armenian Bistro",43.63206,-79.54431,NA,4.4,10,9903.48939383756,"159","Etobicoke City Centre","Bar","European","Single Location"
"oo73pe5tERpDxaa_eSY2tQ","Iqbal Kebab & Sweet Centre",43.70659,-79.35144,"Medium",3.7,56,8840.27371431698,"055","Thorncliffe Park","Bar","South Asian","Single Location"
"WRJOwG8VCuG2wxw5wwPIZQ","Paulo Sardinha BBQ Chicken",43.6684563313692,-79.4865791872144,NA,3.7,6,5773.64314086393,"111","Rockcliffe-Smythe","Bar","European","Single Location"
"4_L9bnIvY8TLDfiTBGcnRA","Daldongnae Korean BBQ - Cummer",43.789726,-79.418312,"High",4.2,382,16039.2207908855,"036","Newtonbrook West","Bar","East Asian","Single Location"
"Hoh9KQeNrkc4dZ8ru59rgw","The Bull BBQ Pit",43.67786,-79.44459,NA,2.4,11,4029.12313970101,"092","Corso Italia-Davenport","Bar","Other","Small Chain"
"-LKP1w7XPYMGhgjlm6s41w","BBQ Chicken",43.71028,-79.3988,NA,4.1,10,7459.86174282643,"173","North Toronto","Bar","East Asian","Medium Chain"
"5c_yZibvEyzcMzOFfU6A9Q","Horno BBQ",43.6550713,-79.401947,NA,3.3,3,1930.06397890815,"078","Kensington-Chinatown","Bar","Other","Single Location"
"whmHqZTdCrP9h1uBZ6MbfA","Gui Gui",43.7874216393039,-79.4172048568726,NA,3.7,45,15789.4143780442,"050","Newtonbrook East","Bar","East Asian","Single Location"
"-1GLB6sO-XOGt_rvHg2P6Q","Shah Abbas",43.68734,-79.39399,NA,3.3,6,5179.14466697136,"097","Yonge-St.Clair","Bar","Middle Eastern","Single Location"
"_81fRJ9m8Fn1s8ixPun46A","Union Social Eatery",43.7639042110806,-79.4111878640642,"Medium",3.7,279,13199.0978291421,"151","Yonge-Doris","Bar","Other","Small Chain"
"1-T7IiQ37VwEuvVFKhhqGg","Chainsmoker",43.65003,-79.6035,NA,3.6,26,14648.1370507677,"011","Eringate-Centennial-West Deane","Bar","Other","Single Location"
"McaRYgVwOCmtWkKxNsXlZg","Royal Meats Bar/Beque",43.62558,-79.52893,"Medium",3.6,132,8899.21624470912,"159","Etobicoke City Centre","Bar","Other","Single Location"
"VxeZoQDFaYO4Ng8WT2S4Kg","Yummy B-B-Q",43.7480270796486,-79.3487305174743,NA,3.9,37,12843.6072365034,"042","Banbury-Don Mills","Bar","East Asian","Single Location"
"cfXjoEFkvR7rh3tlVhPoJA","King's BBQ Chicken Restaurant",43.68186,-79.47094,NA,3.3,3,5636.34394475854,"110","Keelesdale-Eglinton West","Bar","East Asian","Single Location"
"OoltsCTAg6aF2VbB_4s7qA","Kisha’s Tropical Cuisine",43.65378,-79.37372,NA,3,3,4007.21137369637,"168","Downtown Yonge East","Bar","Latin American","Single Location"
"ZobB_ZrgLrxwikCNA6Txxw","Sing Sing BBQ House",43.6652603,-79.3529282,NA,2.8,4,6024.25079277322,"070","South Riverdale","Bar","Other","Single Location"
"Vz3sCriSaCLp0pJGwsNKag","Karahi Boys",43.74385,-79.29975,NA,3.7,59,14717.6260845929,"119","Wexford/Maryvale","Bar","South Asian","Small Chain"
"h9pgw0FaCSKJI1OFvNgtwg","Brickyard BBQ & Bar",43.6209736945916,-79.5490830762815,NA,3.3,25,10566.5414456102,"159","Etobicoke City Centre","Bar","Other","Single Location"
"gteA1_bDN-spzeiJmaBizg","Ram in the Rye",43.6579658916211,-79.3778977543116,NA,2.3,8,3827.52246506562,"168","Downtown Yonge East","Bar","Other","Single Location"
"zB8erSywGYxQB06FmVKfYA","The Sun Barbecue Company",43.5991,-79.5444,"Medium",5,3,11096.39569745,"020","Alderwood","Bar","Other","Single Location"
"PLa2EQ60fVpHoxJC5UmQ-A","Costa Verde BBQ Chicken",43.7271004,-79.4825287,"Medium",3.1,26,10302.0625137396,"155","Downsview","Bar","European","Single Location"
"URvh6DgFyA-d6Z7OVKxczg","Rally Restaurant and Bar",43.7174661,-79.305012,"Medium",3.9,113,12366.6498059193,"043","Victoria Village","Bar","Other","Single Location"
"2F4UhgnP9VzIhQL_qvfdaA","Daldongnae Korean BBQ - Sheppard",43.7624550542034,-79.41156,NA,3.8,18,13036.3272718986,"038","Lansing-Westgate","Bar","East Asian","Single Location"
"K0_7-QjuNKMqVgLnvI5C1g","Chicken Place",43.7644938,-79.4763179,"Medium",4.8,24,13942.0661616307,"027","York University Heights","Bar","Other","Single Location"
"wfodQFCUYXaeVRG34Gy6TQ","George's Deli & BBQ",43.65819,-79.37262,"Low",2.6,43,4227.96000596269,"073","Moss Park","Bar","Other","Small Chain"
"02A-lf3A1SW3mYexFH5xYw","Sumaq Iraqi Charcoal Grill",43.744255236665,-79.2977900955116,NA,3.6,62,14857.3898720417,"119","Wexford/Maryvale","Bar","Middle Eastern","Single Location"
"xJxvw8BDhOPUa4NVCwfU3A","Ghadir Meat & Restaurant",43.7439061598943,-79.3038383884685,NA,4.3,30,14505.1143546322,"119","Wexford/Maryvale","Bar","Middle Eastern","Single Location"
"FVrZStAgbGBwltiN11zwBg","Esau Parrilla",43.6516,-79.38331,NA,2.3,4,3230.71575714075,"170","Yonge-Bay Corridor","Bar","Other","Single Location"
"hY77DYw8mh1WT9yypK4qyA","Arizona Grill Lounge",43.6835879634285,-79.5936031644176,"Medium",2.3,142,14422.0770985136,"001","West Humber-Clairville","Bar","Latin American","Single Location"
"8x7iKbQD2v_1_rIK71-6Yw","Sultan BBQ & Grill",43.73831,-79.21812,NA,3.3,7,19360.6118531925,"139","Scarborough Village","Bar","Other","Single Location"
"37joQpD9m5AIcrW1c8OBnQ","Urban Smoke Fusion BBQ Food Truck",43.719295501709,-79.4695663452148,"Low",3.8,9,9036.77794052968,"031","Yorkdale-Glen Park","Bar","Other","Single Location"
"dERy_B711ru09qGE0aDOPw","The Chicken Nest",43.71873,-79.42993,"High",3.9,17,8149.46046778603,"032","Englemount-Lawrence","Bar","Other","Single Location"
"Gq7t6Nb303Iqugbyq-hBWg","Etob Restaurant",43.72555,-79.55138,NA,3.8,6,13691.2597370912,"005","Elms-Old Rexdale","Bar","Other","Single Location"
"HWmc1Uwx-ABsrI0ZrQsHqA","Wilson's Haus of Lechon",43.78658,-79.27664,NA,3.4,8,19622.7711148287,"128","Agincourt South-Malvern West","Bar","East Asian","Small Chain"
"f9I6n63u7KdJ0JVDPp3jdQ","Ghadir Fish Restaurant",43.7434285,-79.3044017,NA,3.8,6,14476.673663119,"119","Wexford/Maryvale","Bar","Middle Eastern","Single Location"
"9LNs7rIaRngiI57TEfSYiQ","I Love BBQ",43.7894705,-79.4181252,"Medium",2.8,13,16024.5935694035,"036","Newtonbrook West","Bar","East Asian","Single Location"
"NYpnwc4yt44SkcBb9dlhtA","Bourbon St Grill",43.7787787,-79.3447208,"Medium",3.5,12,16078.9534047463,"047","Don Valley Village","Bar","Other","Medium Chain"
"vaCb_1iC7VxZGd1f1Czcew","BBQ Chicken",43.76351,-79.41115,NA,3.9,12,13160.8784712902,"151","Yonge-Doris","Bar","East Asian","Medium Chain"
"xtj8twd1dlODdIZI5FjVoA","Son Lechon Bbq Restaurant",43.7461117,-79.486899,NA,3.7,3,12352.0492742001,"027","York University Heights","Bar","Other","Single Location"
"3ijLguDlxXRDSPHSVrikPQ","He He Long Bbq Take-Out Shop",43.79105,-79.36664,"Low",3.1,32,16792.2403198502,"048","Hillcrest Village","Bar","East Asian","Single Location"
"rz_MbxHYHWwZMT-F5fgfUA","Cusina Lounge",43.737289174837,-79.4349258765578,"Medium",1.9,28,10260.7209444221,"033","Clanton Park","Bar","East Asian","Single Location"
"WdhQvQbGd2HAiZ2UmlcVGA","Wild Wing",43.77288,-79.28023,"Medium",3.5,53,18190.0847520124,"126","Dorset Park","Bar","North American","Medium Chain"
"Ft060vaLmEQqHxVBK_6kkA","Hung Fok BBQ Gourmet",43.7857392632955,-79.3521449782862,NA,3.7,6,16582.9903441308,"047","Don Valley Village","Bar","East Asian","Single Location"
"HesHSSFdVkQIlP7Nc88GSQ","Shawarma Daddy",43.7855005376455,-79.2796417325735,NA,3.9,15,19332.9428089948,"128","Agincourt South-Malvern West","Bar","Other","Single Location"
"5eM6g1ZLsSYAUetHZGi-Cg","Wing Machine",43.7490152435949,-79.2754819616675,NA,1,3,16484.5704278812,"126","Dorset Park","Bar","Other","Small Chain"
"M6r6jKPr5tcpdatDn9K5lA","East Court & Mike's BBQ",43.7883027,-79.2699046,"Medium",3.8,31,20052.5267045913,"128","Agincourt South-Malvern West","Bar","East Asian","Single Location"
"DizSoX0FqH_EvXSHW6wEIQ","Le Petit Déjeuner",43.65061,-79.37023,"Medium",3.6,405,4220.83052366533,"073","Moss Park","Brunch/Breakfast","European","Single Location"
"uPa5hrWmHm0n1l4MSyVMGQ","Aloette",43.6485583117656,-79.395963,"High",4.3,356,2140.86534732745,"164","Wellington Place","Bistro","European","Small Chain"
"GsersW8TSeEuZQMSs5bBxQ","Cheffry's Artisanal Bistro",43.64823,-79.39494,NA,4.8,44,2209.10778531187,"164","Wellington Place","Bistro","South Asian","Single Location"
"-bR_E93JC2MktefiSl1huA","Milou",43.649392,-79.4279101,NA,3.9,43,632.483123977128,"084","Little Portugal","Cafe/Bakery","European","Single Location"
"Q8TRdS59cq-ie8FqtpjEdQ","Maison T",43.67052,-79.42632,NA,4.8,24,2804.25932542968,"172","Dovercourt Village","Bistro","European","Single Location"
"JEXasd9XUHFbt_fIdmdK8g","La Banane",43.64904,-79.4203,"Very High",4.2,173,428.870436996866,"081","Trinity-Bellwoods","Bistro","European","Single Location"
"0Vm6qMgCfZIwoIVW29Nr4Q","Ngogo",43.6469405,-79.4063051,NA,4.5,19,1291.41785697126,"081","Trinity-Bellwoods","Bistro","European","Single Location"
"O-uIEuv7JLUHajkemx_sVw","Beerbistro",43.649628,-79.377165,"Medium",3.9,698,3661.29733082195,"168","Downtown Yonge East","Bar","Other","Single Location"
"dnaf5liDvfAyKqtrPHCcxw","Teller's Bar and Lounge",43.64882,-79.37805,"Medium",4.6,13,3567.74778500098,"170","Yonge-Bay Corridor","Bar","International","Single Location"
"l9ED01htuVR47OegwgbhDw","UK India Bistro",43.65505,-79.41748,NA,5,3,1130.42180555021,"081","Trinity-Bellwoods","Bistro","South Asian","Single Location"
"3bffEV2SaVCL9WMb151qPQ","Cafe 85- Downtown",43.6582978,-79.3847116,NA,3.7,3,3346.97711068528,"170","Yonge-Bay Corridor","Cafe/Bakery","Other","Single Location"
"e_cYl6KaEtZYWTvdC-LWnw","Maison Selby",43.6712727802952,-79.3766000467065,NA,4,132,4658.72998950227,"074","North St.James Town","Bar","European","Single Location"
"jU_58BeD5q_MOjr_FFQEBw","Marron Bistro",43.7004903348,-79.4286329,"High",4.5,12,6139.60943384576,"102","Forest Hill North","Steakhouses","Other","Single Location"
"LSvEm-WZT_fL2acXWnNrFw","Parquet",43.662564,-79.403625,NA,3.2,6,2418.77000247402,"079","University","Bar","Other","Single Location"
"ngpRQ-lQEwpiWMqpA2luqw","The Old York Tavern",43.64190847177,-79.4064587466248,NA,4.3,3,1329.09860226941,"162","West Queen West","Bar","Other","Single Location"
"PXkvTI4iJo6SIolhYtANSw","Aloette Bay",43.644036,-79.37753,NA,4.4,8,3599.0386224163,"166","St Lawrence-East Bayfront-The Islands","Bar","Other","Single Location"
"6yZsohxDA97XATTwTlbKIw","Lil Joe Cucina & Bar",43.66927,-79.33615,NA,4.4,19,7413.05389049092,"070","South Riverdale","Bistro","Other","Single Location"
"6xen0bxz_cCCHrWCejC8Og","Banbudian Bistro",43.6522966023178,-79.397486120931,NA,4.2,5,2130.35023816553,"078","Kensington-Chinatown","Bistro","Other","Single Location"
"NGZTLv4JBnGsb0ntINvTDg","Joni Restaurant",43.6692,-79.394887,NA,4.2,25,3433.29444295191,"095","Annex","Bar","Other","Single Location"
"8fr_dq2X5ujH5i2bJP238w","Tav's Gnocchi Pizza Bar",43.65512,-79.41343,NA,3.9,16,1283.07117273908,"081","Trinity-Bellwoods","Street Food","European","Single Location"
"UxWH8zRYIBgs6Q2oykvRdw","Cluny Bistro & Boulangerie",43.6505879,-79.3578962,"High",3.5,709,5207.14905269493,"166","St Lawrence-East Bayfront-The Islands","Bar","Other","Single Location"
"GG9On_mEYGmkkBWUWCkz1g","Moc Brunch & Bistro",43.654772,-79.387471,NA,4.3,3,2979.68547846072,"170","Yonge-Bay Corridor","Bistro","East Asian","Single Location"
"zIyqiWYKrCvAdGeWXXBxFw","Veloute Bistro & Catering",43.6313790341776,-79.4746012413817,"High",4,42,4496.6054297412,"161","Humber Bay Shores","Bar","European","Single Location"
"ucgzkl7atsBMGu4gGpmHfw","Peter Pan Bistro",43.64915,-79.3933799,"Medium",3.6,212,2351.86475443779,"164","Wellington Place","Bistro","North American","Single Location"
"t2oJEG1YXkO5EMoo28r80Q","Jules Bistro",43.66389,-79.32859,NA,3.6,38,7805.73986950947,"070","South Riverdale","Bistro","Other","Small Chain"
"rBOpDqeQl0J_fbDtY-cWxg","Bumpkins Restaurant",43.66662,-79.38411,"Medium",4,40,3863.535018449,"167","Church-Wellesley","Bistro","European","Single Location"
"STNYM0jpu32PLF2uNTrpbA","The Cherie  Bistro",43.6651269688688,-79.3808928,NA,3.7,29,3979.28669831177,"167","Church-Wellesley","Bistro","European","Single Location"
"Qo7nb8zAVjLvxSc8qIvPVg","UNO Bistro",43.618381,-79.509504,NA,5,3,7658.63250910685,"160","Mimico-Queensway","Cafe/Bakery","European","Single Location"
"uChnTTQzV7Nu7EDrluF6uw","Sauvignon Bistro",43.668453,-79.307099,"High",4.1,46,9607.82543359543,"063","The Beaches","Cafe/Bakery","North American","Single Location"
"O-QzKFXawEOiJmonWgvKbQ","Le Conciliabule",43.671365,-79.3272249,NA,4.6,16,8166.86683333731,"065","Greenwood-Coxwell","Cafe/Bakery","Other","Single Location"
"M40XxsUYsCtCESHmPPOxQg","Jane & Dick's Bistro",43.7144,-79.40025,NA,4,3,7870.38330094059,"103","Lawrence Park South","Bistro","Other","Single Location"
"2TZBOnl2DczDNcRdkoPYFw","Vue Bistro",43.6426283,-79.3868547,NA,2.5,8,2863.64345033784,"165","Harbourfront-CityPlace","Bar","North American","Single Location"
"BQ_p2B-cplfT8iLr-eZyQA","Royal Bistro",43.61875,-79.49968,NA,3.9,7,6899.09530262875,"160","Mimico-Queensway","Bistro","European","Single Location"
"5R6aB5T6pDIlgam1nbibcw","Fox Bistro",43.692154,-79.576862,NA,2.1,13,13477.4750025006,"001","West Humber-Clairville","Bistro","North American","Single Location"
"FCMRBcvrwN01eT6WRaTC6A","The Craft Brasserie & Grille",43.6394076328957,-79.4208196351823,"Medium",3.6,183,683.563439127767,"163","Fort York-Liberty Village","Bar","North American","Single Location"
"LHwzyN5cllTfLuZ8v2k_Bg","Le Paradis Brasserie Bistro",43.67506,-79.40025,"Medium",3.7,124,3737.95658169884,"095","Annex","Bar","European","Single Location"
"4Nn9QoRDkOr-DWMF7KPqOQ","Brasileirissimo Steak House",43.64925,-79.4226,NA,3.8,11,420.074497296066,"081","Trinity-Bellwoods","Other","Latin American","Single Location"
"nQxYkbV4P2h2HqJB0nfpxw","Rio 40 Restaurant",43.677457,-79.446485,"Medium",4,65,4056.08400721997,"092","Corso Italia-Davenport","Other","Latin American","Single Location"
"6Ej4FfMKUJadTeDjfw3c4Q","Samba Brazil Eatery",43.67498,-79.45728,NA,4.1,8,4329.24506937085,"091","Weston-Pelham Park","Fast Food","Latin American","Small Chain"
"j2U2vs4WWlF6SR5SS_D1lA","Brazil Bakery and Pastry",43.649907830042,-79.434125988384,"Low",4.1,51,1077.147973898,"084","Little Portugal","Cafe/Bakery","European","Single Location"
"tvYID0arhN-shKGUrC1Wsg","Copacabana Brazilian Steak House",43.707823,-79.393985,"High",3.5,428,7297.92790854413,"173","North Toronto","Steakhouses","Latin American","Single Location"
"53_BDRxqMV8Ba54iSj9paA","Samba Brazil Eatery",43.65734,-79.38093,NA,4.3,7,3587.88933075036,"168","Downtown Yonge East","Fast Food","Latin American","Small Chain"
"GlvxiSIZXlWBnZGyQ-HfrA","Brazilian Burger Bar",43.65518,-79.34057,NA,3.5,4,6663.88184958531,"070","South Riverdale","Street Food","Latin American","Single Location"
"trKyIRyjKqVSZmcU0AnICQ","Pearl Diver",43.65163,-79.37375,"Medium",4.2,665,3957.26074816407,"168","Downtown Yonge East","Brunch/Breakfast","Other","Single Location"
"kOFDVcnj-8fd3doIpCQ06A","Mildred's Temple Kitchen",43.6399108749312,-79.4204235076904,"Medium",4,1132,634.96011584086,"163","Fort York-Liberty Village","Brunch/Breakfast","North American","Single Location"
"_5izyrn1qV0uyec65UsdIA","LOCAL Public Eatery Liberty Village",43.6381221,-79.4181561,"Medium",3.8,330,880.26433922311,"163","Fort York-Liberty Village","Bar","North American","Single Location"
"YHubCF0Ua0uC6HC2tm-arQ","The Federal",43.6497699,-79.43011,"Medium",4,192,792.815122554572,"084","Little Portugal","Bar","North American","Single Location"
"7gnYWanhD6O7qOF-NfPNhA","Frankie's",43.6445099,-79.41842,"Medium",4,206,326.528540199207,"081","Trinity-Bellwoods","Brunch/Breakfast","Other","Single Location"
"ovqp9IltLJ9TsEaAhCaVkQ","The Arch Café",43.65634473576,-79.4026142970393,NA,4.6,34,1987.91880373343,"078","Kensington-Chinatown","Cafe/Bakery","Other","Single Location"
"vMOvHfVMYL2V_X-L5ryNtQ","1 Kitchen",43.6430415376097,-79.4019655669139,NA,4.3,76,1652.46684634151,"164","Wellington Place","Bar","Other","Single Location"
"oTIrLlpOOYIPCswyui0BgA","Sisters & Co",43.650951,-79.411703,"Medium",4.4,150,1038.05711076518,"081","Trinity-Bellwoods","Cafe/Bakery","Other","Single Location"
"74ynvQJihDvXr_1bEiOh-g","La Plume",43.6432133153733,-79.3969598785043,NA,4.2,30,2048.45979943119,"164","Wellington Place","Cafe/Bakery","European","Single Location"
"PyjnsWzNUTo1n2ohq0QznA","Dirty Food Eatery",43.66565,-79.47188,"Medium",4.5,166,4581.40398173795,"090","Junction Area","Brunch/Breakfast","Other","Single Location"
"za9EO-X_Ht3pvyfOpJuIVA","Molkagtez",43.6415152106234,-79.431099,NA,4.2,16,838.552744354205,"085","South Parkdale","Cafe/Bakery","Latin American","Single Location"
"VhQXJteVrG3L-wq8HlYFqw","The Ace",43.646122,-79.448823,"Medium",3.8,214,2141.30047306465,"086","Roncesvalles","Brunch/Breakfast","North American","Single Location"
"BAZKOcjfiSsSkS0i4fjfdg","Gateau Ghost",43.6536637519572,-79.4277843153413,NA,4.3,31,1014.91746128494,"083","Dufferin Grove","Cafe/Bakery","Other","Single Location"
"eYeFOcNJO2iTNPCPi8XAxw","El Pocho Antojitos Bar",43.66963,-79.41338,"Medium",4.3,94,2779.32631339136,"095","Annex","Bar","Latin American","Single Location"
"fN_I3jP7RD2llubTvhXtKQ","Good Fork",43.6498781462521,-79.4334161634989,"Medium",4,435,1025.13167094244,"084","Little Portugal","Brunch/Breakfast","Middle Eastern","Single Location"
"MNmnwqlekpLOLQS-oYjjfQ","Sad Songs Cantina",43.6586760562231,-79.4399406853667,NA,5,3,2046.34438715297,"083","Dufferin Grove","Bar","Latin American","Single Location"
"9B_lhM_Ys7AIykLMvyPypg","El Venezolano",43.6798269,-79.3413146,NA,4.2,35,7546.88660895687,"066","Danforth","Bar","Latin American","Single Location"
"6cz8xLR64Iuzpa4NNcFHqg","King Rustic",43.6418019534315,-79.4121160358191,"Medium",3.7,72,910.035035387312,"162","West Queen West","Bar","Other","Single Location"
"1Re9xpZaZr_BnUOFo5gW3Q","T.O. Dickens Restaurant",43.656801,-79.403267,NA,4.4,9,1983.12136198259,"078","Kensington-Chinatown","Brunch/Breakfast","European","Single Location"
"QLEFWBuJC5ISpOBfCXrOew","Sunny Taiwanese Breakfast",43.663856,-79.386461,NA,3.9,8,3532.46526950543,"169","Bay-Cloverhill","Brunch/Breakfast","East Asian","Single Location"
"e41TP5cXZqSrz50xCBJqZw","Insomnia Restaurant & Lounge",43.665961,-79.411003,"Medium",4.1,1057,2450.83606380656,"095","Annex","Brunch/Breakfast","Other","Single Location"
"ocLnCE2E29j-CoBQj1yaSA","Cafe Landwer",43.648756586341,-79.3851623211785,"Medium",4.2,636,3004.48454282721,"170","Yonge-Bay Corridor","Cafe/Bakery","Mediterranean","Single Location"
"vM_s5ORV4iYTXULxf9Thxw","OEB Breakfast - Toronto Street",43.650258,-79.376691,NA,4.4,71,3705.7836419145,"168","Downtown Yonge East","Brunch/Breakfast","Other","Single Location"
"dN-Uy9sv9r5o_F3EgTTPHA","One Eyed Jack - Toronto",43.6485946,-79.3926332,NA,3.9,13,2406.27878875351,"164","Wellington Place","Bar","Other","Single Location"
"V9qjoWogqqMWvFFpuASRYw","Evviva Breakfast & Lunch",43.641602,-79.383301,"Medium",3.8,462,3161.5260809165,"165","Harbourfront-CityPlace","Brunch/Breakfast","Other","Single Location"
"lluWviKcr6Efiy_-vpA79A","Sleepy Pete's",43.6543862754235,-79.4004564732313,NA,4.6,14,2012.63616874147,"078","Kensington-Chinatown","Brunch/Breakfast","Other","Single Location"
"Z5kjUEm1A18l864gb3XA8A","Town Crier Pub",43.6480479699209,-79.3901396970807,"Medium",4,267,2597.57197929459,"164","Wellington Place","Bar","European","Single Location"
"8VvK9RZOQ0fA0EI52yyXDQ","BB's",43.642058,-79.432207,NA,4,20,905.549458390725,"086","Roncesvalles","Bar","East Asian","Single Location"
"fEGJVOxmBhCHuYDkje-K3g","OEB Breakfast Co. - Liberty Village",43.63836,-79.41623,"Medium",4.5,179,890.825698675389,"163","Fort York-Liberty Village","Brunch/Breakfast","Other","Single Location"
"GchqFBWs7R6LrJAnj9RUIA","Louf",43.6775426640958,-79.4070345908403,NA,4.4,5,3769.84455411592,"096","Casa Loma","Bar","Middle Eastern","Single Location"
"i--dxuKd_6Dx7mwgQ5nl-g","School Restaurant",43.63784,-79.42435,"Medium",3.5,681,873.280925630189,"085","South Parkdale","Cafe/Bakery","North American","Single Location"
"bTi4zsxj5tmiVBHxmapmUw","Deauville Club",43.6469699,-79.3932324,NA,4.3,3,2338.838917366,"164","Wellington Place","Bar","European","Single Location"
"9dV86LKzD6WNPTf3FDiT_A","Lume Kitchen and Lounge",43.624227670313,-79.4844043,NA,5,8,5533.43807231134,"161","Humber Bay Shores","Bar","Other","Single Location"
"Vc0lg1LXRx_MZ4pd1CDgEw","King Taps",43.644851,-79.400914,NA,4.6,5,1722.70654216939,"164","Wellington Place","Bar","Other","Small Chain"
"iyRufQdOXO73tdXfzhAA1A","Bad Egg",43.6533813,-79.3695623828208,NA,5,4,4327.5525006279,"073","Moss Park","Cafe/Bakery","Other","Single Location"
"eB6Ppy591kP8I3mSLMeAVw","Ohiru Cafe",43.657258,-79.404682,"Medium",4.5,71,1926.95429745641,"079","University","Cafe/Bakery","East Asian","Single Location"
"pfpOi3Q-Yap72z2bLKdWPQ","Drake's Corner Café + Bistro",43.64328,-79.42459,"Medium",3.4,109,316.982922768711,"084","Little Portugal","Brunch/Breakfast","North American","Single Location"
"A1XZOukMHfwW8w_kbxfZIQ","Sammi",43.68016,-79.34015,NA,4.1,15,7639.02050277602,"066","Danforth","Cafe/Bakery","East Asian","Single Location"
"25x2uEOj0gcuiojR8-fTNw","Cafe Landwer - Spadina",43.68817,-79.41233,NA,4.9,15,4814.37819630463,"096","Casa Loma","Cafe/Bakery","Mediterranean","Single Location"
"TvuuHpean6L6vqFucWcSKQ","Cafe Landwer- Front",43.6476258746323,-79.3764915055223,NA,4.4,26,3687.67507810997,"168","Downtown Yonge East","Cafe/Bakery","Mediterranean","Single Location"
"whhBvsrFMDDOa0-mxJHqmA","L’Avenue",43.64354,-79.39615,NA,3.8,16,2115.70462039208,"164","Wellington Place","Brunch/Breakfast","Other","Small Chain"
"9tfw-OEfpF0qC2hSzRks6g","Hair of the Dog",43.662946823805,-79.379592870241,"Medium",3.8,388,3942.16072294388,"167","Church-Wellesley","Bar","Other","Single Location"
"9tKazRXjY6fkhlntKgFn_Q","Kitchen On Sixth",43.6005867949987,-79.5068445875054,"Medium",4.5,65,8443.99563278014,"018","New Toronto","Brunch/Breakfast","European","Single Location"
"bVkrRpSW6WNGvjdOHxoG0Q","Ladybug Wine Bar",43.6565929665409,-79.3571092933416,NA,4.8,13,5383.02066266199,"073","Moss Park","Bar","Other","Single Location"
"_cjPEH9wXhKS-HQe_U3M4Q","Le Sélect Bistro",43.6439055771458,-79.3968523102889,"High",3.9,521,2049.07238723539,"164","Wellington Place","Cafe/Bakery","European","Single Location"
"h_ypoQ2rmwX8UGSmohsGiQ","maman",43.6489996482418,-79.381692368518,"Medium",3.5,146,3284.89627420094,"170","Yonge-Bay Corridor","Cafe/Bakery","Other","Single Location"
"UPThULfNFsRXY0UJRpgHjg","Le Lert",43.661167,-79.381253,NA,3.8,19,3728.89368947838,"168","Downtown Yonge East","Bar","East Asian","Single Location"
"zmfa8RNxqSuOJ9Nx-CMs_Q","Positano Restaurant",43.704721174577,-79.3885415149198,"Medium",4,69,7123.60515798798,"099","Mount Pleasant East","Street Food","European","Single Location"
"9Sw3iu0vOJ9-AO0y6ed8FQ","HolmPei Cafe Bistro",43.6556910880713,-79.3844062,NA,4,14,3248.15768692318,"170","Yonge-Bay Corridor","Cafe/Bakery","Other","Single Location"
"_viJXCHkTCTLS9_HtCLq2A","The Eagle Twins Restaurant",43.67981,-79.43602,"Low",4.1,16,3963.95086162794,"092","Corso Italia-Davenport","Cafe/Bakery","Mediterranean","Single Location"
"BzRDduGyGfRf4AdupVhYgA","Good Behaviour",43.6494377,-79.3920668,"Medium",4.5,26,2466.39917961497,"164","Wellington Place","Brunch/Breakfast","Other","Medium Chain"
"j20cG33ujAMxiQYN1LgYNw","Aloette",43.6382926520399,-79.4181402644224,NA,3.8,16,863.17438730305,"163","Fort York-Liberty Village","Bar","Other","Small Chain"
"V1FSee0pZ-yReDQ28SAO3g","White Lily Diner",43.65881,-79.3511599,"Medium",4.5,174,5905.57004136323,"070","South Riverdale","Brunch/Breakfast","Other","Single Location"
"SXYgArUxyNdF2f8PvblehQ","Flipper's",43.6574582040787,-79.3831522017717,NA,4.4,28,3414.62406934873,"170","Yonge-Bay Corridor","Other","Other","Single Location"
"DxsaAW6Ul7iZJJ7zqum5fQ","Kos Restaurant",43.654879,-79.403344,NA,3.3,113,1843.7100846359,"078","Kensington-Chinatown","Brunch/Breakfast","North American","Single Location"
"d_BYcwM3_TDqYOoxFBNYXg","Reign Restaurant + Bar + Bakery",43.6457651711073,-79.3817658321545,NA,4,55,3255.7105789693,"170","Yonge-Bay Corridor","Bar","Other","Single Location"
"7p6zDM_4eDSzxhauEj2oqw","The Berczy Tavern",43.6485485876526,-79.3733346,"High",4.2,6,3948.72098495823,"166","St Lawrence-East Bayfront-The Islands","Bar","Other","Single Location"
"WlAVHyZE6atHHDd10RRUXQ","Carmelitas Restaurant",43.6657,-79.46888,NA,4.1,18,4371.83530644808,"090","Junction Area","Brunch/Breakfast","Latin American","Single Location"
"ICFYlS9nwsoAyaiRXMu9tQ","Fuwa Fuwa Japanese Pancakes",43.6659512785201,-79.4078764691949,"Medium",3.9,430,2553.26046273086,"095","Annex","Cafe/Bakery","Other","Single Location"
"j87_0kpKjsRx-EKHmOW6VQ","Siempre Restaurant",43.643393311738,-79.3922074406298,"Medium",3.9,127,2426.44470336779,"164","Wellington Place","Brunch/Breakfast","Other","Single Location"
"eI3OEhXYIbPDXopWcFqyBw","Old Avenue Restaurant & Bakery",43.7336471765141,-79.4193774254158,NA,4.7,20,9807.49073203447,"039","Bedford Park-Nortown","Cafe/Bakery","Middle Eastern","Single Location"
"Xj7-1BuvwbSi2Rl6uOkdOA","Betterbar",43.671386275276,-79.3950051233139,NA,3,5,3619.33630918364,"095","Annex","Cafe/Bakery","Other","Single Location"
"IPjdTAQMFKseDtz2pyHBKw","BLCK.",43.6587806,-79.3682694,NA,4.3,3,4586.4088613305,"073","Moss Park","Brunch/Breakfast","Other","Single Location"
"0srheyT-ZX41S8-HZBUjnQ","Cong Caphe",43.6577214282252,-79.3820362116568,NA,4.2,17,3508.71597028158,"170","Yonge-Bay Corridor","Cafe/Bakery","Other","Single Location"
"_7HjUKqU5GQOQirnZzRgWA","Sportsnet Grill",43.642222906459,-79.3895409044114,"Medium",3.8,87,2654.68879664789,"165","Harbourfront-CityPlace","Bar","North American","Single Location"
"iOAc6gwSEOTkPbcj0oe1Pw","Pura Vida",43.6814480604632,-79.4281252,NA,4.2,6,4028.59089062453,"094","Wychwood","Brunch/Breakfast","Latin American","Single Location"
"8hfcfrsbnUuLAiE5NxRFaA","Twilight Cafe",43.6556492521089,-79.3794893963611,NA,3.7,24,3619.93100724742,"168","Downtown Yonge East","Cafe/Bakery","Other","Small Chain"
"28B4WmPFEwBlE8CHyYkeeg","Cafe Landwer - Yonge & Bloor",43.67028,-79.38553,"Medium",4,130,4048.3115238927,"167","Church-Wellesley","Cafe/Bakery","Mediterranean","Single Location"
"Uq-GOs9_IqweUsB5MdII9w","Emma's Country Kitchen",43.68103,-79.4303599,"Medium",4.2,468,3992.64553618765,"094","Wychwood","Brunch/Breakfast","Other","Single Location"
"vcehGLcA-hQAHclS6zkYVw","Margo",43.64474,-79.39992,NA,3.7,13,1801.74422051647,"164","Wellington Place","Bar","Mediterranean","Single Location"
"G12kABl0tfK4ylgj8XF06w","Voodoo Child",43.65714,-79.40552,"Medium",4.1,156,1863.73814537505,"079","University","Cafe/Bakery","Other","Single Location"
"cfT6rmhWvUnbEqfKXhwxYw","Cafe Neon",43.64427,-79.4197,"Medium",3.8,70,241.140722610124,"081","Trinity-Bellwoods","Cafe/Bakery","Other","Single Location"
"-vFY4VZ1F0F82fnHVnP22w","Lox + Schmear",43.67929,-79.43823,"Low",4.5,46,3963.5086081666,"092","Corso Italia-Davenport","Brunch/Breakfast","Other","Single Location"
"2lHLb0Hi_UtGa1Bne-jZuA","Hugs and Sarcasm",43.6457619092439,-79.4104793334332,"Medium",3.9,48,945.725253575276,"162","West Queen West","Street Food","North American","Single Location"
"q0h4BwOvmlj4BWdZP2uETw","Spaccio West",43.6536345043066,-79.4450988198154,NA,3.3,6,2052.03516071823,"083","Dufferin Grove","Street Food","Other","Single Location"
"8UVFcPbjbTITgPoG-yvGLw","The Morning After",43.6401644139445,-79.3971426116567,"Medium",3.7,152,2102.8367140912,"165","Harbourfront-CityPlace","Cafe/Bakery","Other","Single Location"
"7v91woy8IpLrqXsRvxj_vw","Old School",43.6519218754076,-79.4083632901311,"Medium",3.3,413,1326.16224198065,"081","Trinity-Bellwoods","Brunch/Breakfast","North American","Single Location"
"7Pi00RyxovS4PdRWZDKKSg","Arvo Coffee",43.6387586,-79.4210316,NA,4.4,16,761.057271547436,"085","South Parkdale","Cafe/Bakery","Other","Single Location"
"vZyF3o30_m_-Pp5u0DkLoQ","Starving Artist",43.6546795549694,-79.4218739100287,"Medium",3.5,129,1024.41856954884,"080","Palmerston-Little Italy","Brunch/Breakfast","North American","Small Chain"
"kWYKZZpm9x9O8XJMZlWIwg","Ramona's Kitchen",43.7061970895314,-79.3755155,NA,4.4,21,7727.1101388924,"099","Mount Pleasant East","Brunch/Breakfast","Other","Single Location"
"QiQmMauQH0CHmq0NIXoTpg","Roses Social",43.6332142651065,-79.4115792179579,NA,3,16,1609.74022361356,"163","Fort York-Liberty Village","Bar","Other","Single Location"
"uPtv9IwRG_Ip-LBR0NSf6Q","The Mission Eatery",43.64667,-79.40735,NA,4.6,19,1204.20850517173,"081","Trinity-Bellwoods","Brunch/Breakfast","European","Single Location"
"QWUjHQouokPaUtiTe9Jn_g","Morning Parade Coffee Bar",43.6501410644523,-79.4173834260404,NA,4.6,7,649.27448896816,"081","Trinity-Bellwoods","Cafe/Bakery","Other","Single Location"
"dPCZydqMLohZUFIP0k-Z1Q","Century Park Tavern",43.6696641,-79.4487723822758,NA,2.8,4,3434.82916849322,"171","Junction-Wallace Emerson","Street Food","Other","Single Location"
"AHeXi_Ayyeu8D7IDO1QKVg","Smart and Morris",43.666675,-79.412068,NA,4.7,3,2505.94753369409,"095","Annex","Brunch/Breakfast","Latin American","Single Location"
"e7z-b8Z6TfdYkBg35DB58A","Liberty Soho",43.6384666,-79.4168254,NA,3.6,24,891.304555413853,"163","Fort York-Liberty Village","Bar","Other","Single Location"
"cQK9M2JAwETQnnBoYyua5A","The Senator",43.65574,-79.37896,"Medium",3.9,523,3661.40138764957,"168","Downtown Yonge East","Bar","North American","Single Location"
"F7a3r2prtF5EvlfLv3clog","The Parlour",43.6444882,-79.4015886,NA,3.7,49,1664.14893486224,"164","Wellington Place","Street Food","Other","Single Location"
"WFHGOFezTaZZI2xmGbADKw","Gold Standard Queen",43.6399288300237,-79.4405293464661,NA,4.4,11,1596.51790907571,"086","Roncesvalles","Street Food","Other","Single Location"
"xthPwYusyF7mE2SO61lZTA","UFO Restaurant",43.643982049702,-79.4088259436963,"Medium",4.2,77,1090.84642837135,"162","West Queen West","Brunch/Breakfast","East Asian","Single Location"
"tAzdE1tRcsznfWN6TOLP3Q","Egg Sunrise Grill",43.6496996990954,-79.4294207079693,"Low",4.8,37,745.850290796133,"084","Little Portugal","Brunch/Breakfast","North American","Single Location"
"ToR5nBbXCxdDyoZVTp7YCQ","Maha’s Cafe",43.661297683711,-79.3398719766232,NA,4.2,11,6855.3539406767,"070","South Riverdale","Cafe/Bakery","Middle Eastern","Single Location"
"JK_DiDwbl7HX5OhCAh3h4g","Cafe Diplomatico Restaurant & Pizzeria",43.655255,-79.413732,"Medium",3.2,244,1284.83562124934,"080","Palmerston-Little Italy","Street Food","European","Single Location"
"DCaJpxsjmXogz-9S7SQhPw","République Brunch & Bar",43.666777,-79.385704,"Medium",4,4,3774.52438836311,"169","Bay-Cloverhill","Cafe/Bakery","Other","Single Location"
"Igkjdb03dzYKssZMokDpog","The Grill On Jane",43.6590913284981,-79.4882065,NA,5,3,5520.25283371102,"089","Runnymede-Bloor West Village","Street Food","Other","Single Location"
"XDO88u3vWV64uekyHQUjCw","Dairy Freeze",43.6751174,-79.4548844,"Low",3,81,4215.39843471412,"092","Corso Italia-Davenport","Street Food","Other","Single Location"
"UWXggIA0t4Pp_xc57niKTg","Queen Star Restaurant",43.64345,-79.42329,"Low",3.3,32,241.191657305756,"084","Little Portugal","Brunch/Breakfast","North American","Single Location"
"Fx5haZv9PP3E7Ljp-h7B1Q","Eggspectation - Bay Street",43.65375,-79.38201,"Medium",4.1,831,3356.05309935889,"170","Yonge-Bay Corridor","Bar","North American","Single Location"
"V1gMaazJbhiiCaVBil6uQg","Savor Thai",43.6778446742175,-79.445036775425,NA,4.3,13,4040.55044148094,"092","Corso Italia-Davenport","Bar","East Asian","Single Location"
"ZN3weccWKlj4I-noFXlclg","Hermie’s",43.706104,-79.3751156,NA,4.5,13,7733.7722823898,"056","Leaside-Bennington","Brunch/Breakfast","East Asian","Single Location"
"1KZLJVIbgHc2j1csgpffFw","Old Mill Buffet",43.65094,-79.4934,NA,1.6,5,5802.78875588699,"015","Kingsway South","Brunch/Breakfast","Other","Single Location"
"rxA9c0_XObabVL1WCTA4FA","Sneaky Dee's",43.6562399,-79.4074,"Medium",3.6,497,1687.8492915454,"078","Kensington-Chinatown","Bar","North American","Single Location"
"y7lhU3dl8cSvIOgKVrKGlw","Sommelier Factory",43.6488730453163,-79.3919314722686,NA,4.2,11,2466.71611907147,"164","Wellington Place","Bar","Other","Single Location"
"7oEKIG7d1ttPRejppZ3WIA","Lady Marmalade",43.6632283197423,-79.3515481548027,"Medium",4,664,6019.22664837174,"070","South Riverdale","Brunch/Breakfast","Latin American","Single Location"
"EIVZ8aGTYXSdvdm8S_cmHQ","Golden Eggs All Day Breakfast",43.63935,-79.3859,NA,3.8,16,2999.02099713164,"165","Harbourfront-CityPlace","Brunch/Breakfast","Other","Single Location"
"E6TkGRZe6GHbAdi6MXE5Ng","O’SOMAE",43.66529,-79.35222,"Medium",4.3,35,6046.71882086022,"070","South Riverdale","Cafe/Bakery","Other","Single Location"
"qLwW8Vme39_0daq-GKVrlA","Made Rite Coffee",43.6530366228297,-79.4041285,NA,5,3,1681.68035315675,"078","Kensington-Chinatown","Cafe/Bakery","Other","Single Location"
"85eE8dfOmgItGRa-yZzimg","Stacked Pancake & Breakfast House",43.648821,-79.3969976,NA,4,13,2063.80967129424,"078","Kensington-Chinatown","Brunch/Breakfast","Other","Single Location"
"X3F49Z1CqZt9fiobdl2EQQ","Turtle Jack's",43.6861780202107,-79.5959339229676,"Medium",2.9,58,14687.282611003,"001","West Humber-Clairville","Bar","North American","Single Location"
"C-UU3BAhbP8hlYFozri2Yg","Mazeh",43.65734,-79.38093,NA,5,7,3587.88933075036,"168","Downtown Yonge East","Brunch/Breakfast","Middle Eastern","Single Location"
"84RdNjDKXKzqZlSlT6G6PA","Film Cafe by Eative",43.65506,-79.40246,"Medium",3.7,179,1916.51095586573,"078","Kensington-Chinatown","Cafe/Bakery","East Asian","Single Location"
"7k_bfsuYAtLpHG1XtBfxIQ","Pigeon",43.646110357345,-79.3914386,NA,3.3,37,2478.26004634085,"164","Wellington Place","Cafe/Bakery","Other","Single Location"
"BQDFlWHyabvHIlx6HGxR3Q","Pantry",43.6783169543193,-79.3901964494139,"Medium",3.9,32,4469.70020757091,"095","Annex","Brunch/Breakfast","North American","Single Location"
"hos-AWGzdNI5qiiFMTPS3A","Corazon Agave",43.6258358329944,-79.5042406191188,NA,3.8,5,6951.96424362099,"016","Stonegate-Queensway","Cafe/Bakery","Latin American","Single Location"
"Ado3kudEn4uApQBWFCqWLA","Chew Chew's Diner",43.6634891,-79.3722871,"Medium",3.8,120,4489.52751424107,"071","Cabbagetown-South St.James Town","Cafe/Bakery","Other","Single Location"
"3a7Qby_IX7sU7O6ZsQZeOQ","RH Courtyard Restaurant at RH Toronto",43.7249033524692,-79.4556018136787,"High",3.9,201,9231.27529750615,"031","Yorkdale-Glen Park","Cafe/Bakery","North American","Single Location"
"7IJ87ugGpgyxi2qjb9N3EA","Mira Mira",43.6694998906469,-79.3016482517123,NA,3.6,44,10061.4127790175,"063","The Beaches","Cafe/Bakery","Other","Small Chain"
"s7Pj1mNYqRTGNOXLOiBafw","Figo",43.6476795733413,-79.3905313304741,"High",3.4,339,2562.01123233319,"164","Wellington Place","Cafe/Bakery","European","Single Location"
"-dOjdFq-kFhQTrG-yLYc_w","Maple Leaf Tavern",43.66814,-79.33976,"High",3.7,116,7096.4217707327,"070","South Riverdale","Bar","North American","Single Location"
"WF4QWTg7pBC-KmMP_texzQ","Egg Club Wellesley",43.6642,-79.38389,"Low",4.6,55,3707.57621285955,"167","Church-Wellesley","Cafe/Bakery","Other","Single Location"
"sSp-ZbEsVDKf8Y2OAXS40A","Speducci Mercatto",43.7048664,-79.4728068443061,"Medium",4.2,46,7756.7857209296,"030","Brookhaven-Amesbury","Bar","European","Single Location"
"ohZEAOsjOYPINsqaqKnzfA","Flaming Stove",43.6982689,-79.3957672,"Low",4.2,74,6239.7841956381,"174","South Eglinton-Davisville","Brunch/Breakfast","Middle Eastern","Single Location"
"dp9haMgS5RZ6i1kQq_oS5A","Fran's Restaurant",43.6614505,-79.384068,"Medium",3.3,457,3547.07828984019,"169","Bay-Cloverhill","Brunch/Breakfast","North American","Small Chain"
"Z3gmGO68sRWAql7PiTwLIQ","Evviva",43.6645998157131,-79.3876230615354,NA,3.6,9,3503.46025355768,"169","Bay-Cloverhill","Bar","Other","Single Location"
"-jPgzLZNArRVIcSpx-iV_g","The Porch Light",43.6807050652599,-79.2865457385778,NA,4,31,11595.9935914215,"062","East End-Danforth","Cafe/Bakery","Other","Single Location"
"uyIfsow3XxON9QJK2FTaXQ","Aris Place",43.64606,-79.44868,"Low",3.9,65,2138.25964496856,"086","Roncesvalles","Brunch/Breakfast","European","Single Location"
"sZYd_zBMQOq3oovRM4qKzw","Sadelle's at Kith Toronto",43.671435,-79.391283,NA,4.4,11,3809.73734416948,"095","Annex","Brunch/Breakfast","Other","Single Location"
"5OL9Jdr5-a0AgohMGc7TrQ","Oretta Midtown",43.70383,-79.39718,NA,3.6,74,6764.4165105015,"174","South Eglinton-Davisville","Bar","European","Single Location"
"BkvUOO79b7wdTjWGYo1pqg","Gallery Grill",43.6636499,-79.3944999,"High",4.2,27,2981.93606159083,"079","University","Brunch/Breakfast","North American","Single Location"
"kBQ6VmKkr8uGOMTRE9MlMw","Huevos Gourmet",43.6227219,-79.4792354,NA,4.1,10,5162.05297087797,"161","Humber Bay Shores","Brunch/Breakfast","Other","Single Location"
"-chGaXHZsoLKLHPJMMsdmw","Utopia Café & Grill",43.65547,-79.41346,"Medium",3.6,270,1312.51492304117,"080","Palmerston-Little Italy","Street Food","North American","Single Location"
"ubDO6BYjnPSIZIpWxXGdlQ","Karine's",43.654152,-79.391194,"Low",4.2,278,2676.88253984947,"078","Kensington-Chinatown","Brunch/Breakfast","Other","Single Location"
"iL2lgP6HdAEOGiDPYNgiiA","Little Pebbles",43.6550118089421,-79.4000903142079,NA,4.2,6,2073.04003443265,"078","Kensington-Chinatown","Cafe/Bakery","Other","Single Location"
"OR6iRk0vrMzE-1gLg-WYrw","Grenadier Cafe",43.6453922668846,-79.46537733078,"Medium",2.8,96,3472.11394270211,"087","High Park-Swansea","Cafe/Bakery","Other","Single Location"
"d8Kz48UDfZ0MPuQpGy2r0Q","Kost",43.64541,-79.3923,"High",3.5,330,2388.43504315728,"164","Wellington Place","Brunch/Breakfast","North American","Single Location"
"kn6KOuQXlRxbLhOAluNFpQ","KOS Cafe and Restaurant",43.67223,-79.41436,"Low",3.5,41,3041.74661907952,"095","Annex","Brunch/Breakfast","Other","Single Location"
"Iw6HDyVxstrPz_r5ydnPXQ","Eggstatic",43.70549,-79.37534,"Medium",4.3,161,7658.06988854095,"099","Mount Pleasant East","Brunch/Breakfast","Other","Single Location"
"ZuQXAm9faBZEFr30Z-fTuw","Impact Kitchen",43.64644,-79.39803,NA,4.2,10,1944.61489936428,"164","Wellington Place","Cafe/Bakery","Other","Medium Chain"
"3esXrwa-3-bLH4BqSatoBQ","Kettlemans Bagel",43.64185119,-79.40154099,NA,3.1,39,1712.38686356443,"164","Wellington Place","Brunch/Breakfast","Other","Small Chain"
"jxJU2oYkOBhmWmFjxRa6KA","Sibel Restaurant",43.734988,-79.419499,NA,4.2,5,9957.14458250832,"039","Bedford Park-Nortown","Brunch/Breakfast","Mediterranean","Single Location"
"TpwCjlKsdYjLsvlYhKGt4g","Almond Butterfly Harbord Bakeshop & Cafe",43.6629326,-79.4033968,"Low",4.2,197,2462.72439104366,"079","University","Cafe/Bakery","Other","Single Location"
"RWciMXdSpzqIwO2pBYAdAA","Slayer Burger",43.701051,-79.396936,"Medium",4.1,14,6506.4939942791,"174","South Eglinton-Davisville","Fast Food","Other","Small Chain"
"CXbzSmmHEsbJGeM99HZbLw","The Spicy Ethiopian",43.653872,-79.371622,NA,5,3,4176.13722642285,"073","Moss Park","Brunch/Breakfast","African","Single Location"
"qcXImg6e0AN7bi4r6Vi-dQ","Amanecer Latino",43.7011492209985,-79.4259422,NA,4.5,4,6198.4224313948,"102","Forest Hill North","Brunch/Breakfast","Latin American","Single Location"
"Qy533RUCIVP2PSQNycHkFQ","Casa Manila",43.6784114823996,-79.3488658592105,NA,4,20,6945.54829377332,"067","Playter Estates-Danforth","Cafe/Bakery","East Asian","Small Chain"
"EL-iUP2pr6aJE2ZRVyNwyA","Baker and Scone",43.6814735,-79.4260975,"Low",4,87,4015.46899704515,"094","Wychwood","Cafe/Bakery","Other","Single Location"
"klu0zF1rWAoNAhKPsFyUog","Local Public Eatery - Leaside",43.7100342838168,-79.3634979222257,"Medium",3.5,166,8593.40200985444,"056","Leaside-Bennington","Bar","Other","Single Location"
"A1M88qxJAMEa0MJwG3z4OA","Pasaj",43.6621859603945,-79.3358078380287,NA,3.8,77,7196.68278338595,"070","South Riverdale","Cafe/Bakery","Other","Single Location"
"iykmdWBkGZmBXk4wHgT-BQ","Odd Burger",43.65627,-79.40971,NA,3.9,7,1566.02124657367,"080","Palmerston-Little Italy","Street Food","Other","Single Location"
"jo4KmAqlZ7vxjHIP7IIkAw","Café La Gaffe",43.65621,-79.3932899,"Medium",3.4,134,2613.60328786764,"078","Kensington-Chinatown","Brunch/Breakfast","European","Single Location"
"1RE-r3jSXwDoH252u2or1g","Dessert Lady Café",43.6687719038749,-79.3902338231143,NA,4,22,3652.02535349195,"169","Bay-Cloverhill","Cafe/Bakery","Other","Single Location"
"K2Cb96Q8beDvSNagu_jqLg","SCENIC Coffee + Brunch",43.6692872913598,-79.3358870720323,NA,4.7,11,7433.49386365639,"070","South Riverdale","Cafe/Bakery","East Asian","Single Location"
"S1ERY5aAWW2T6xtpCTbelQ","Frenchy Bar Et Brasserie",43.6499349,-79.3856723,NA,3.6,8,2982.72148463947,"170","Yonge-Bay Corridor","Bar","European","Single Location"
"iDv99zgwiLqqaoXV6BLbDw","Starving Artist",43.6698280151111,-79.4830118492246,NA,4,29,5590.01156684455,"090","Junction Area","Brunch/Breakfast","Other","Small Chain"
"4h6LSyBwqlcxIGRg8bgalA","Fox On John",43.647264,-79.390488,"Medium",3.3,211,2585.50998218893,"164","Wellington Place","Bar","European","Single Location"
"ECOnq58qoeqwPuS59P1W-A","Hannah's Cafe and Bakery",43.6542601,-79.4625825,"Low",3.4,40,3408.75208502775,"088","High Park North","Cafe/Bakery","Other","Single Location"
"1K4qrnfyzKzGgJPBEcJaNQ","Chula Taberna Mexicana",43.6692562,-79.3359022,"Medium",3.9,179,7431.1272265272,"070","South Riverdale","Bar","Latin American","Single Location"
"JOoblYsQjFT-47tkt6om0A","7 West Cafe",43.6685661933329,-79.3865257501602,"Medium",3.4,467,3852.76361210784,"169","Bay-Cloverhill","Bar","European","Single Location"
"6s2qNMNDyigpznZHyaADfA","The Kingston House",43.679245,-79.29733,NA,4,3,10727.7243057267,"062","East End-Danforth","Bar","Other","Single Location"
"3gdjVkNeUa9piW9H708Aig","The Olde Yorke",43.70619,-79.36218,"Medium",4.4,368,8308.23371378765,"056","Leaside-Bennington","Other","European","Single Location"
"ri0zuFbgbu7hV6N1SdGIHg","Saint John's Tavern",43.64817,-79.3901,NA,4.1,29,2596.48292179566,"164","Wellington Place","Bar","European","Single Location"
"qaNt4vtVdge_S68DVjw5Jg","The Queen And Beaver Public House",43.65734,-79.38334,"Medium",3.8,442,3397.63412587004,"170","Yonge-Bay Corridor","Bar","European","Single Location"
"DbqphQKQoQI5ME9HLBDxrQ","Bramble Gastropub",43.6481890862384,-79.5084130075468,NA,4.7,7,6941.3215170333,"015","Kingsway South","Bar","European","Single Location"
"CEtzcGnaRI_3AEgsBpMYMQ","The Dorset",43.64312,-79.39736,NA,4,22,2020.88550109251,"164","Wellington Place","Other","European","Single Location"
"_Gv5HPQBM3fzI9bOUYFYuw","The House On Parliament",43.66359,-79.36794,"Medium",4.1,346,4811.37354284532,"073","Moss Park","Bar","European","Single Location"
"t_XpjR3_Cf7r9tj3w3vAbw","The Beech Tree",43.6803871,-79.2888628,"Medium",3.9,59,11408.690303052,"062","East End-Danforth","Bar","European","Single Location"
"dDTJv37DK257kf74ZPBcxg","The Bishop And Belcher",43.670288586406,-79.3825300316245,"Medium",3.5,134,4220.61661497057,"167","Church-Wellesley","Bar","European","Single Location"
"bKUXKjUIY34BTowDBwFjbQ","The Churchmouse: A Firkin Pub",43.6646112519968,-79.3801465109641,"Medium",3.5,91,3998.7902573364,"167","Church-Wellesley","Bar","European","Single Location"
"biqnUUHYHsNBCI5BpMM8Xw","The Feathers Pub",43.68068,-79.2875,"Medium",3.6,39,11521.7978677072,"062","East End-Danforth","Bar","European","Single Location"
"m7PPpShEdfhtV-7NnPN1Nw","Duke of Kent",43.70793,-79.39829,"Medium",3.3,129,7208.14681864273,"173","North Toronto","Bar","European","Single Location"
"NYKxikYKbkacWumJ82TxzA","Queen Victoria Pub",43.7754496,-79.2743833,"Medium",3.8,23,18710.8538389552,"126","Dorset Park","Bar","European","Single Location"
"wtgrvqXDjAFF4LvJW1X-1Q","Watts Restaurant",43.723885,-79.3009418,"Medium",2.8,23,13111.455296412,"120","Clairlea-Birchmount","Other","European","Single Location"
"6BZ-yG31kf-zOaD8s-0_jA","Queensway Fish And Chips",43.6217454622448,-79.5245691082452,"Medium",3.2,31,8648.65283783784,"159","Etobicoke City Centre","Other","European","Single Location"
"tpI1PbAD0Kh2dAJsAOEjcA","Queen's Head Pub",43.772489,-79.320619,"Medium",2.9,68,16315.0808475581,"118","Tam O'Shanter-Sullivan","Bar","European","Single Location"
"Ibmf1PgWn_5oaGQ1kINmTw","Kathmandu Restaurant",43.67115,-79.387962,"Medium",3.6,75,3967.15602710314,"095","Annex","Buffet","South Asian","Single Location"
"J9BmILDpV1Pr3GKU9XhjTQ","Little India Restaurant",43.6502008,-79.3888945,"Medium",3.5,463,2732.95059730905,"164","Wellington Place","Buffet","South Asian","Single Location"
"ebZffHBmin3eRi8Jl0gpRg","Bluffers Park Restaurant",43.706528,-79.23168,"High",2.6,38,16760.7941218667,"123","Cliffcrest","Diner","Other","Single Location"
"hmXrKXhcD2n2s6fmb2wRFg","Aldo's Restaurant Peruvian Food",43.7515877875937,-79.5266440138221,NA,3.9,12,14480.9918430939,"025","Glenfield-Jane Heights","Buffet","Latin American","Single Location"
"cPXasVLtq_1gmuSg65TUfQ","Dragon Pearl Buffet",43.7539020566017,-79.3499526431255,"Medium",3.5,472,13383.934684063,"042","Banbury-Don Mills","Buffet","East Asian","Single Location"
"D2lZBF8wTVChoSIqGFPfeg","Caribbean Queen Buffet",43.73946,-79.53844,NA,4.3,4,14039.3323292396,"022","Humbermede","Brunch/Breakfast","Latin American","Single Location"
"UpbTdzW9OoVrnbpHyxnMWg","Mandarin Restaurant",43.7060318,-79.3985138,"Medium",3.5,154,6998.93794278591,"100","Yonge-Eglinton","Buffet","East Asian","Medium Chain"
"YAdyu9ovEiOZXBWkD0H8-Q","Jerusalem Restaurant",43.778882,-79.363849,"High",3.3,180,15559.0094751565,"047","Don Valley Village","Buffet","Mediterranean","Small Chain"
"n0lOAQDZRXsFutZ8zNqDPQ","Olly Fresco's",43.6467045532099,-79.3801457807422,"Low",3.7,41,3388.65381682787,"170","Yonge-Bay Corridor","Buffet","Other","Small Chain"
"w737ZnuyX-k0_0J_t0vkmQ","The Courtyard Cafe",43.6687916161403,-79.3910880740764,"High",1.9,10,3605.50027504156,"169","Bay-Cloverhill","Buffet","Other","Single Location"
"hMwkDamyJzwQwBC_M11tTw","Favourites Dining Room",43.7190285,-79.6036758,NA,3.8,9,16545.3820456474,"001","West Humber-Clairville","Buffet","Other","Single Location"
"17blokEfgkZCXa9tJ6XHuQ","Marcello's Market & Deli",43.64912,-79.3828,"Low",3.7,11,3184.58106221756,"170","Yonge-Bay Corridor","Buffet","Other","Small Chain"
"A7IQT6RYVSWkvEAbiLCdtQ","Desi Spice",43.7356008357922,-79.6047169852063,"Medium",4,54,17768.8625933111,"001","West Humber-Clairville","Buffet","South Asian","Single Location"
"PMsqD6wHCfxdrZkGXIepvA","Mandarin Restaurant",43.6209874147648,-79.523169460921,"Medium",3.5,100,8567.90503050749,"159","Etobicoke City Centre","Buffet","East Asian","Medium Chain"
"i_0rSAui4zaz4ydVaOZ6bQ","Marcello's Market & Deli",43.649321,-79.378413,"Medium",3.3,7,3551.12921950765,"170","Yonge-Bay Corridor","Brunch/Breakfast","Other","Small Chain"
"DW7ttoWMaI2jWN41gekbiA","Mandarin Restaurant",43.7198669266624,-79.5959427625656,"Medium",3.3,43,16234.9009108474,"001","West Humber-Clairville","Buffet","East Asian","Medium Chain"
"7zeopyMwmDrKSJ1RD1UU7w","Mandarin Restaurant",43.7308161207866,-79.2792395005249,"Medium",3.5,95,14907.7454659063,"119","Wexford/Maryvale","Buffet","East Asian","Medium Chain"
"_S58fmMsy4v2odxzAhMzTA","Godavari Toronto",43.76712,-79.22759,NA,2.5,16,20675.538095244,"141","Golfdale-Cedarbrae-Woburn","Buffet","South Asian","Single Location"
"fojiPcgWlM-FJTxZlz4Idg","Mandarin Restaurant",43.7672151077477,-79.4695571974838,"Medium",2.9,62,14061.8553202767,"027","York University Heights","Buffet","East Asian","Medium Chain"
"56NlsgaDP195RIg799yGJA","Burger Drops",43.6395,-79.42128,NA,4.4,125,667.307682172282,"085","South Parkdale","Street Food","Other","Single Location"
"SNHRPLtAnxLxnin2behylQ","Steam Whistle Kitchen",43.6406672,-79.3857124443711,NA,4.2,53,2986.2596034926,"165","Harbourfront-CityPlace","Street Food","Other","Single Location"
"2tHRq6ZJ92rrBDTynG7LwQ","Annex Social",43.6724839,-79.4143709,NA,4.4,7,3069.32498417861,"095","Annex","Street Food","Latin American","Single Location"
"GTLqYRSozfppyU3eF9XBTQ","Chadon Beni",43.644867,-79.416215,NA,4.5,11,494.411055555178,"081","Trinity-Bellwoods","Bar","Latin American","Single Location"
"m8yG0INs3QDrFnYtyzJ53g","Irene",43.643544,-79.366401,NA,4.4,9,4500.31745171427,"166","St Lawrence-East Bayfront-The Islands","Bar","Other","Single Location"
"VT7_O70bL_N8y5hNaNs5tA","Happy Patty",43.6473493097921,-79.4025947865082,NA,4.8,4,1593.32230518239,"164","Wellington Place","Street Food","Other","Single Location"
"4YnTxQ5j7tsbBhlasnDnPw","Madam Boeuf And Flea",43.67524,-79.40636,NA,4.3,8,3544.37070390667,"095","Annex","Bar","Other","Single Location"
"GVLefMCVpJnGau0Q79C3nw","Old K Chicken Burgers",43.6577264517568,-79.4022235245369,NA,4.7,3,2108.82190806862,"079","University","Street Food","Other","Single Location"
"nGqvOsLbBmNrJgzSGPqF7A","Oklahoma Burgers",43.6473433162107,-79.3868563736977,NA,4.4,7,2853.51848973054,"164","Wellington Place","Cafe/Bakery","Other","Single Location"
"nGS6-6s4D0HxCzLJEAo6Rw","Paris Texas",43.6444681167682,-79.3960904,NA,3.7,6,2105.91964604674,"164","Wellington Place","Bar","Other","Single Location"
"jGO4T6rGX3EIOwOtg4bZqg","Lobster Burger Bar",43.647443,-79.386768,"Medium",3.9,113,2861.43631770845,"164","Wellington Place","Bar","Other","Single Location"
"1GA50aNHwpS1gaGWDdUMgg","Rosie’s Burgers",43.642251,-79.397198,NA,4.4,13,2076.76087277753,"164","Wellington Place","Street Food","Other","Single Location"
"r6pMpFJ2LFY_5cW_BMTOfQ","Matty’s Patty’s Burger Club",43.6452257,-79.4126735,"Medium",3.9,90,764.044215593392,"162","West Queen West","Street Food","Other","Single Location"
"WCODeXJ3M0Pyo2XZho_4JQ","Neu Lokal",43.6653182,-79.4709838147961,NA,4.8,6,4500.81600574422,"090","Junction Area","Bar","Other","Single Location"
"GZIDfJliKbUDJ7u5Rq4FDQ","Bodega Burgers",43.6573815,-79.3807846,NA,5,6,3587.61029227249,"168","Downtown Yonge East","Street Food","Other","Single Location"
"p7K9HWKbwN5I8ka2qvscgw","The Bullger Burger & Steak",43.6512433531898,-79.4106314331293,NA,4.3,3,1132.41598813952,"081","Trinity-Bellwoods","Street Food","Other","Single Location"
"T_ZMSF3Yj_YMQL7X60Ok7g","Flame Food+Design",43.6511699407415,-79.4751231579362,NA,4.6,42,4303.00928849098,"087","High Park-Swansea","Street Food","Middle Eastern","Single Location"
"-UPeV7N-R_v-98gE9rTtIQ","Harrys Charbroiled",43.6471016162634,-79.3999337,NA,4,4,1802.83242657954,"164","Wellington Place","Street Food","Other","Single Location"
"Jgc09LXbFsWFNKh98UcMlw","Boukan",43.67971,-79.342154,NA,4.1,18,7480.96289751206,"066","Danforth","Street Food","Latin American","Single Location"
"JytR7WvKyytDQNwOHUzSEg","Rudy",43.64973,-79.38907,"Low",4,95,2706.89018342305,"164","Wellington Place","Fast Food","Other","Small Chain"
"ZF3dCPL-PWtEFfWTgSJl5A","The Fancy Burger",43.6650215,-79.4109538,NA,4.3,9,2355.55421674286,"079","University","Street Food","Other","Single Location"
"SOkat3uLjX__3-tCowhlHg","Rudy",43.65489,-79.41474,"Medium",4,195,1210.6648009302,"081","Trinity-Bellwoods","Fast Food","Other","Small Chain"
"1yKlYyiQxUD8agP6VAhQXw","The Burger's Priest",43.64349,-79.4234,NA,4.1,7,247.641699143243,"084","Little Portugal","Street Food","Other","Medium Chain"
"-SL-AHMg8DtKRXqPefZ22w","Matt’s Burger Lab",43.641887,-79.4288069,NA,4.1,17,662.696306688812,"085","South Parkdale","Street Food","Other","Single Location"
"QPVc_HQYcQicsowyeMPpkA","Tallboys",43.66256,-79.42382,"Medium",4,104,1900.58046621243,"172","Dovercourt Village","Bar","North American","Single Location"
"jC7tx7mkA2SYwotkgnQcDw","NBA Courtside Restaurant",43.64197,-79.37359,NA,3.5,33,3932.63151290464,"166","St Lawrence-East Bayfront-The Islands","Bar","Other","Single Location"
"fZDNuuFSnCtcXI3_RAFcSQ","Ozzy's Burgers - Toronto",43.65527,-79.40261,"Medium",4,172,1919.53764254495,"078","Kensington-Chinatown","Fast Food","Other","Single Location"
"2QINHN6ZfNqGNCXARgamNw","Guerilla Burger",43.6656963776515,-79.4090958684683,NA,4.4,5,2484.74879298799,"095","Annex","Street Food","Other","Single Location"
"D-8yidw7FLKKQpciKJSd2g","The Burgernator",43.6556342,-79.4024449,"Medium",4,390,1951.97806184871,"078","Kensington-Chinatown","Street Food","Other","Single Location"
"2jwW2WJImopMlTD4eenGyA","Shake Shack",43.64488931941,-79.3798034705227,NA,3.4,14,3414.07908961962,"166","St Lawrence-East Bayfront-The Islands","Street Food","Other","Small Chain"
"lTpQ_eBXwTbYrK93iyzo7g","Shake Shack",43.6565291569986,-79.3807627327135,"Medium",4,51,3555.38563066239,"168","Downtown Yonge East","Fast Food","Other","Small Chain"
"8LR0kXwoarl5z-OjY-ooaw","Ugly Delicious",43.6544451,-79.4017501,NA,4.3,24,1926.12204605229,"078","Kensington-Chinatown","Street Food","Other","Single Location"
"hPXL_ABIt2E5lnhDXYecKQ","The Golden Peacock",43.6525720476622,-79.4487420044861,NA,3.7,3,2274.90095864,"086","Roncesvalles","Bar","Other","Single Location"
"0rY1ZgVnagRKa8-XgyFBkA","Friday Burger",43.643984642067,-79.377539,NA,4.5,11,3599.49515610214,"166","St Lawrence-East Bayfront-The Islands","Street Food","Other","Single Location"
"mbphEKnKxm-nHscaqarbdQ","Top Gun Burgers",43.641881,-79.428811,NA,5,4,663.361160430442,"085","South Parkdale","Street Food","Other","Small Chain"
"TKcXpf35zJtEjyGoY34vpg","Grilldudes",43.6449046,-79.4187646,NA,4,4,283.187641435685,"081","Trinity-Bellwoods","Street Food","Other","Single Location"
"IxyMtcz3g1Lu4dUlDOMEKQ","Wendy's",43.645773,-79.392519,NA,2.7,3,2391.5761834523,"164","Wellington Place","Fast Food","Other","Small Chain"
