"id","name","categories","latitude","longitude","price_level","rating","review_count","distance","type","cuisine","neigh_id","neighbourhood"
"K3V9JWBZgIMtSICc4kBRUA","Naan & Kabob","Afghan, Kebab",43.6690684857838,-79.3860201,"Medium",4,175,3920.33441767313,"Other","South Asian","167","Church-Wellesley"
"cTSbGa6sPTknAZd6_G1N5A","Afghano Restaurant","Afghan",43.6557152483362,-79.3646372965889,NA,5,1,4771.36556389641,"Other","South Asian","073","Moss Park"
"S-jKUDEKOmaOpgdU32gNWA","Naan Kabob","Kebab, Afghan, Halal",43.6503555207276,-79.3906833186624,NA,5,6,2595.4042072468,"Other","South Asian","078","Kensington-Chinatown"
"GdCRQU3VCh_x8fY84mbwYQ","Bamiyan Kabob","Afghan",43.70779,-79.34344,"Medium",4,166,9403.66232387503,"Other","South Asian","055","Thorncliffe Park"
"uvhc7DWuSy5BP6nOTM6Vyw","Diamond Kabab","Afghan",43.65707,-79.40597,NA,5,2,1835.00967360438,"Other","South Asian","079","University"
"MvNRA9k-xF9ug5gXZexPog","Naan And Kabob","Afghan",43.7049057279802,-79.3614039241258,NA,4,28,8222.20822850657,"Other","South Asian","056","Leaside-Bennington"
"I6nkV6OY9UZtttZEefgydg","Kabob Guys","Afghan, Halal, Kebab",43.648153,-79.395679,NA,4.2,10,2154.48192776816,"Other","South Asian","164","Wellington Place"
"oiocguLkMNwH6gux2wxMfQ","Shawarma House","Afghan",43.64974,-79.36561,"Medium",3.4,16,4590.23380881523,"Other","South Asian","166","St Lawrence-East Bayfront-The Islands"
"4QTwtaua8tjc-PuneLXJzw","Kabul Kabab House","Halal, Afghan, Middle Eastern",43.6716309,-79.3256378,NA,3.8,6,8296.29783381216,"Other","South Asian","065","Greenwood-Coxwell"
"sXLTlGSaK1e1fna5e3V_Rw","Mazar's Kitchen","Halal, Afghan, Vegan",43.6517657,-79.4049646,NA,3,2,1555.27627049919,"Other","South Asian","078","Kensington-Chinatown"
"ll5Y45ZeTYjuCyQ7FwbT2g","Bread & Salt Afghan Cuisine","Afghan",43.61159,-79.58036,NA,4.4,42,13293.5466936021,"Other","South Asian",NA,NA
"wO4MrIgDITkgsdUZZtd2Hw","Sahibi Kabob and Shawarma","Halal, Afghan",43.7228744,-79.2879093822091,NA,0,0,13810.5734554513,"Other","South Asian","120","Clairlea-Birchmount"
"8pJnxLwrosp1m-AkZs_V0Q","Mazadar","Afghan",43.6664947885561,-79.3170488253236,NA,4.2,5,8778.43472213335,"Other","South Asian","065","Greenwood-Coxwell"
"VtQIAj8eXvHqc_8MtMMGwg","Afghan Cuisine","Afghan",43.70805,-79.34294,"Medium",3.7,69,9430.13626475276,"Other","South Asian","055","Thorncliffe Park"
"gux90wIQvVtASKoOloE8dA","Kabob Khana","Afghan, Burgers",43.6823681518815,-79.3293617,NA,0,0,8522.4587145089,"Street Food","South Asian","066","Danforth"
"5B_YKWtJthJqmD5MYw2maA","Hot Pot Cafe","Middle Eastern, Halal, Afghan",43.6862154,-79.3112465,"Low",4,8,10010.6667027145,"Other","South Asian","062","East End-Danforth"
"6GmAkVMAnY6NSxfWGDCvQA","Q Tikka","Middle Eastern, Syrian, Afghan",43.58034,-79.61464,NA,0,0,17104.7562554209,"Other","South Asian",NA,NA
"ytYP2UXkRow2L3emGp469w","Afghan Kebob Cuisine","Afghan",43.7160486,-79.5556858,"Low",3.6,16,13295.5835386138,"Other","South Asian","004","Rexdale-Kipling"
"dRWobPpzRcnARWb99xlAQA","Queen Subs","Sandwiches, Afghan",43.6557667,-79.3647247,NA,0,0,4765.90629880915,"Deli/Sandwiches","South Asian","073","Moss Park"
"sqj18NheItQq-PR9c4uM4g","Kandahar Kabab","Afghan",43.7051458823459,-79.3486794388337,NA,2.7,44,8889.14633179435,"Other","South Asian","055","Thorncliffe Park"
"neQiXqHXlDx2q_fDXetaug","Naan Kabob Modern Afghan Kitchen","Afghan, Kebab",43.65114,-79.60477,NA,4.6,9,14700.9091286212,"Other","South Asian",NA,NA
"fmPl4IK9gi2HdxeFuzRqjA","Afghan Palace","Afghan",43.6716805,-79.3250961,"Extra High",1,2,8333.08308619441,"Other","South Asian","065","Greenwood-Coxwell"
"jsMDbYZVaw9g0_FmsS17bA","Grill N Thrill Kabob","Food Trucks, Afghan, Burgers",43.6617953687539,-79.3977532641196,NA,2.3,3,2678.00427264036,"Street Food","South Asian","079","University"
"V-aweI6rrw8d6MfG1lAPjw","Little Kabul Kabob","Afghan",43.7146088321063,-79.5687001462575,NA,4.1,9,14065.8443170417,"Other","South Asian","001","West Humber-Clairville"
"TgjLGtUexuR7wctaEEpHuQ","Amin Foodmart Halal Meat Afghan Bakery","Butcher, Afghan, Bakeries",43.7141919561343,-79.5581489056349,NA,5,2,13336.7630808184,"Cafe/Bakery","South Asian","004","Rexdale-Kipling"
"NaVcN9YCeO3xBCt86YcHGw","Al Barakat Supermarket & Restaurant","International Grocery, Afghan, Bakeries",43.7452368,-79.2967366,NA,0,0,14994.8357567533,"Cafe/Bakery","South Asian","119","Wexford/Maryvale"
"SO967mepbkVeGtJ7pg7c1Q","Mumtaz Grill Restaurant","Afghan, Middle Eastern, Persian/Iranian",43.7460141,-79.48688,NA,3.9,8,12317.9411259143,"Other","South Asian","027","York University Heights"
"yU4zevCwPAQIMb73smTHog","Bamiyan Kabob","Afghan",43.77361,-79.4920999,"Medium",4.1,94,15297.9687394969,"Other","South Asian","027","York University Heights"
"RBRPyYuctCRZPF7bNWPyFw","Bamiyan Kabab","Afghan",43.6362552034133,-79.6233802288771,"Medium",3.6,170,16219.1672361685,"Other","South Asian",NA,NA
"R0VWDbJxUt4xZ3Os_YLDDg","Zaytoun Kitchen","Afghan, Halal, Chicken Wings",43.714982505415,-79.5937590371701,NA,4.3,4,15812.0636522412,"Other","South Asian","001","West Humber-Clairville"
"V7cS_j4Y5rSEPBC2mrOa0A","Naan and Kabob","Afghan",43.7885307728014,-79.5484757332769,NA,4.4,14,18867.9578023002,"Other","South Asian",NA,NA
"8OXgrxXm45OauJsc0lGRPw","Baghlan Kebob & Bakery","Afghan, Bakeries",43.7142045953301,-79.5583274831869,NA,4.2,9,13349.3390070606,"Cafe/Bakery","South Asian","004","Rexdale-Kipling"
"OR648Fgmc6oGvobTT5h-ig","Naan Kabob","Afghan, Kebab",43.7721615317274,-79.2819063903285,NA,4.8,5,18046.1373116563,"Other","South Asian","126","Dorset Park"
"F-W2xnBizjl3uXdW5qUezw","Mazza Kebab & Grill","Afghan, Middle Eastern, Mediterranean",43.7260468243295,-79.4807088321505,NA,0,0,10118.8080249669,"Other","Mediterranean","155","Downsview"
"Z7ZX_0Ha9EpXgBktztbvIQ","North Kabab","Afghan",43.7446606441716,-79.2200599020909,NA,3,1,19642.42714972,"Other","South Asian","139","Scarborough Village"
"vpaZAWtc2KRbXGSaCCE7SA","Zaytoun Kitchen","Afghan",43.7150055883435,-79.5938379049215,NA,0,0,15818.8489108776,"Other","South Asian","001","West Humber-Clairville"
"ceK2VvPlxPBPo1evXOlD7g","Naan and Kabob","Afghan, Middle Eastern",43.74251,-79.3051799,"Medium",3.7,90,14307.8379132489,"Other","South Asian","119","Wexford/Maryvale"
"kzyyaoOEg6GK8ZPOfSZ79Q","Afghan Kebab","Afghan",43.68923,-79.29628,NA,0,0,11234.5293315516,"Other","South Asian","062","East End-Danforth"
"8vS_mFMUo9GDrOJH8V33Dg","Boston Kabab","Afghan",43.5814182150887,-79.6187530830503,NA,5,1,17350.8118125288,"Other","South Asian",NA,NA
"360zPyMTwLAax9Bq0PHdMA","Kandahar Kabab","Afghan, Middle Eastern",43.640037,-79.625372,"Medium",2.4,78,16357.6903053627,"Other","South Asian",NA,NA
"KWKZvqNtsnPQltn6ZxOjDw","Al-Meezans Spicy Grill","Middle Eastern, Afghan",43.72075,-79.6132499,"Low",3.2,17,17482.4502819671,"Other","South Asian","001","West Humber-Clairville"
"TgsOO1GuXLV4scKMinq_Qg","Chapli Kabob","Halal, Afghan",43.5787584283271,-79.6168676956599,NA,3.3,15,17337.2987918212,"Other","South Asian",NA,NA
"nuNraiaIluYc9vDZg7XfRA","Naan and Kabob","Halal, Afghan",43.775038,-79.25738,"Medium",2.9,15,19573.5582453205,"Other","South Asian","156","Bendale-Glen Andrew"
"S_Zmd1XOFXMh-E-tXh6HtQ","Afghan Chopan Resturant","Afghan",43.7402837071847,-79.2325505134732,NA,0,0,18539.354701377,"Other","South Asian","138","Eglinton East"
"KAWdWL0_DtYxjZFC2xb1Gg","BergFit","Food Delivery Services, Afghan, Kebab",43.77417,-79.49389,NA,0,0,15733.8537864965,"Other","South Asian","027","York University Heights"
"09Z8oXGu9qA9xBwzgSFVfg","Plan B","South African",43.6479836241101,-79.5075397487381,NA,4.7,48,6870.16965147304,"Other","African","016","Stonegate-Queensway"
"TDgaxOFpTKm0zkpviNelpw","Afrobeat Kitchen","African",43.640425,-79.438448,NA,4.9,11,1420.70795472539,"Other","African","086","Roncesvalles"
"B70U6-FOn_R45tfOcQADWg","Naija Jollof","African, Fast Food",43.6474104,-79.4044053,NA,5,1,1450.02305959729,"Fast Food","African","081","Trinity-Bellwoods"
"ghzioC59ZinPKkqeusOR_w","Jollof King","African",43.664582,-79.402383,NA,5,1,2660.7223210965,"Other","African","079","University"
"Ur7mW63wJIvrezZNHoHhJQ","BSTO.","Comfort Food, African",43.676948602125,-79.4485002889549,NA,5,1,4088.85817908155,"Other","African","092","Corso Italia-Davenport"
"2jsS2CYpVClz35iouHp15Q","Nganda African Street Food","African",43.6481842232519,-79.38922474846,NA,0,0,2672.41839782921,"Other","African","164","Wellington Place"
"LzmqBj_CmwGNtrF6Cmm2Jw","Mesobs Restaurant","African",43.658858,-79.442555,NA,1,1,2230.88425556826,"Other","African","171","Junction-Wallace Emerson"
"c0JwlmMcjTlgIAdx_tKg_w","Mild Afro Lounge","Lounges, African",43.64971,-79.42023,NA,3.1,10,481.108537607014,"Lounges","African","081","Trinity-Bellwoods"
"efFIGYJDnqPnjXlASxF7PQ","Lucy Ethiopian Restaurant","Ethiopian, African",43.6841128,-79.3207142,"Medium",4.4,76,9226.89980331466,"Other","African","066","Danforth"
"UsKmYp0m8VYWM96tkGm2vQ","African Palace","Ethiopian, African",43.66107,-79.42895,"Medium",3.9,100,1825.71024224675,"Other","African","080","Palmerston-Little Italy"
"yGoQENv-m4dkY4XkUgV6Sg","Galito's Flame Grilled Chicken","African, Chicken Shop",43.7058562214437,-79.345849044621,NA,4.3,3,9100.30559380466,"Other","African","055","Thorncliffe Park"
"R8GQdA-m9TDhSXlvr295gQ","Naija Jollof-Toronto","African",43.66504,-79.36796,NA,0,0,4876.12806913978,"Other","African","071","Cabbagetown-South St.James Town"
"MiapXFjVOZnQ87eGxaOimA","SK Cookks","African, Caribbean",43.6396779,-79.421963680648,NA,3.2,13,644.424813707452,"Other","Latin American","085","South Parkdale"
"-IlQvDjwqOnA0iqlbmWX-Q","Le Plato","African",43.67935,-79.3415799,NA,4.4,9,7501.05391504179,"Other","African","069","Blake-Jones"
"2pKpeyPnek0I-_yEvlFK3A","MamaLand Resto-Lounge","Caribbean, African, Lounges",43.65899,-79.44242,"Medium",3.2,5,2229.93892018415,"Lounges","Latin American","171","Junction-Wallace Emerson"
"LGrXzldG5_Q6urGyuqqBrw","Wanaag","African, Coffee & Tea",43.6571922628415,-79.3652309964915,NA,5,7,4767.20209989356,"Cafe/Bakery","African","073","Moss Park"
"phSkA2Mi8WlYKtUAhSjcEA","Suya City Express","Seafood, African, Halal",43.6903455338952,-79.4989787609883,NA,0,0,7937.93826381429,"Other","African","115","Mount Dennis"
"dLx4U_l-PF_5VGbjzPfSwQ","Instant du Palais","African",43.70308,-79.38773,NA,4.5,8,6985.01846748634,"Other","African","099","Mount Pleasant East"
"-hAFDLTPzrPA8zVqD9-Agg","Mushkaki's","African, Burgers, Sandwiches",43.7111454,-79.5677166,"Low",3.9,47,13793.4893528248,"Street Food","African","001","West Humber-Clairville"
"ebXxKRelQuT1td5ON_5hUg","Ryan Restaurant","African, Middle Eastern",43.65597,-79.36409,NA,4,3,4815.7856442451,"Other","Middle Eastern","072","Regent Park"
"wchc5pplgeLV6FdHmYLZ2A","Wakanda Grill","African",43.6653449,-79.4814512,NA,0,0,5259.03058476149,"Other","African","090","Junction Area"
"VQ39EBhWh5EcyOpp2Hd6mQ","Calabar Grill","African",43.6874191266778,-79.4909542993467,NA,4.3,3,7233.13609158,"Other","African","115","Mount Dennis"
"C312Uq4rp3e3pPas3dHw4Q","Ethio & Eri","African, Ethiopian, Cafes",43.65179,-79.40485,NA,4.7,3,1612.59263527291,"Cafe/Bakery","African","078","Kensington-Chinatown"
"RF4o8WMGjClkdDYjlpeljg","African Chop Bar","African",43.749337,-79.553214,NA,4,2,15629.595904284,"Other","African","022","Humbermede"
"gFUSJwVzEDERbaU9FVKfRA","Rajkapuri's Paan & Snacks","African",43.693409,-79.3423964,NA,4,7,8346.01352531927,"Other","African","058","Old East York"
"jyTVMcDQvibPXCNdZ_Fv8g","Ruumors Resto-Lounge","African, Lounges",43.66588,-79.48752,NA,3.8,4,5718.56741919096,"Lounges","African","089","Runnymede-Bloor West Village"
"oEnsXaClGiKMJhlj1XhFrw","Maxyfoodsca and Cakes","Food Delivery Services, Custom Cakes, African",43.7339,-79.48943,NA,0,0,11212.6737315107,"Other","African","155","Downsview"
"OJLR2T3CgXQkUgFmqrkTwQ","Istar Restaurant","African, Party Supplies",43.69668,-79.54387,"Medium",4.4,31,11352.7071479948,"Other","African","006","Kingsview Village-The Westway"
"TUD3RUtNdKYh2UyQuYdR2A","Sahan Restaurant","Steakhouses, African",43.7450295437891,-79.2963746935129,"Medium",4.4,67,14997.6469278678,"Steakhouses","African","119","Wexford/Maryvale"
"pf_vxLZ6aX3seiZ_YNG2dw","Afro Royale Kitchen","African, Caterers, Specialty Food",43.71741867,-79.43121338,NA,0,0,8044.63367185998,"Other","African","032","Englemount-Lawrence"
"ZeLX4hPOjugN9BNtApNHkQ","Jikoni Grill","Indian, African",43.7911607,-79.3132241,"Medium",4.3,3,18444.244678227,"Other","South Asian","148","East L'Amoreaux"
"wjOGOfcZTk_fuZLjbMCmiA","Caribbean Lyme","Caribbean, American, African",43.7434288838849,-79.6054899587193,NA,4,16,18323.1164732568,"Other","Latin American","001","West Humber-Clairville"
"emNQ1jxMev2NzIcP2wdfgg","Simba Grill","Indian, African",43.6934172072181,-79.3423694245142,"Medium",3.7,27,8347.37618402052,"Other","South Asian","058","Old East York"
"DthY4OhALPWRJh0RwADTtw","Naija Jollof","African",43.66504,-79.36796,NA,2,1,4876.12806913978,"Other","African","071","Cabbagetown-South St.James Town"
"VulQcGBt-vSA4efrXt9ORg","The SuyaSpot Bistro","African, Barbeque, Bistros",43.65465,-79.40163,NA,0,0,1948.61100948137,"Bar","African","078","Kensington-Chinatown"
"F_a0jADl5juhdFVNefnvew","Da6Spot","Lounges, African",43.600266,-79.5069726,NA,0,0,8473.43545752493,"Lounges","African","018","New Toronto"
"eOvNVQWc9kac1AUQblCX3w","MK Lounge","African, Lounges, Cocktail Bars",43.7674587414132,-79.5650996496864,NA,0,0,17773.1998839462,"Bar","African",NA,NA
"TqoS79zEtaV9qpxOIdVnWA","Afro Spice","African",43.7637617,-79.4992268,NA,5,4,14480.368625493,"Other","African","027","York University Heights"
"qmIzqm_LGiNE2bkA2c3o5Q","Idlove Restaurant","African, Pubs",43.6836392,-79.4812898,NA,3,3,6370.61670124897,"Bar","African","111","Rockcliffe-Smythe"
"yBRHaH6WB0kZ1fwgafxwaw","Auntie Lizzy's Kitchen","African",43.7599690966856,-79.5922165677308,NA,3,1,18676.8940528043,"Other","African","002","Mount Olive-Silverstone-Jamestown"
"_IvR1FxOQ7MWzN4_7_aFzw","The Suya Spot","Barbeque, African",43.6546795180043,-79.4016105,NA,1.5,2,1949.3008839435,"Bar","African","078","Kensington-Chinatown"
"7764jm626LvzBXYTomSwXg","Inside Lagos Kitchen","African",43.7651697420771,-79.4900408430513,NA,0,0,14382.985395599,"Other","African","027","York University Heights"
"cJsMr9iROwQsslt5eRZDpA","Afro Continental Bar and Grill","African, Dive Bars",43.7345009,-79.5600586,NA,4.5,4,14857.6811313495,"Bar","African","003","Thistletown-Beaumond Heights"
"LNh499Yvl0w_59xoLE2vOA","AU African Restaurant","African",43.675069,-79.56834,NA,0,0,12218.3251944743,"Other","African","007","Willowridge-Martingrove-Richview"
"gZJLqR40497bsAg3bBzWeQ","Naija Jollof- Toronto","Fast Food, African",43.7646158720471,-79.4892781442895,NA,0,0,14302.8051650084,"Fast Food","African","027","York University Heights"
"RL00Hsncq4R-_rJ4pW2Rmw","Nando's","South African, Chicken Shop, Fast Food",43.620746686324,-79.5554268,"Medium",3.2,81,11066.8731063853,"Fast Food","African","159","Etobicoke City Centre"
"cAhfv9WbBnGoHTBGpJc8aA","Royal African Pride","African",43.7536899,-79.6075501,NA,0,0,19173.9603134845,"Other","African","001","West Humber-Clairville"
"niN-aYCAwkD78qsNLSFHJA","Charloma Star","Caribbean, African",43.7355359990999,-79.2509456,NA,0,0,17027.9022439079,"Other","Latin American","124","Kennedy Park"
"sRzjkisAYT4lgCRz0kSWjQ","Suya City Express","African, Juice Bars & Smoothies, Seafood",43.6243251724952,-79.588171,NA,0,0,13560.2241551692,"Bar","African",NA,NA
"f5I6BNCCjIEWVADKUdrgQQ","Ademoo African Food","African, Specialty Food",43.6400343,-79.5639266,NA,0,0,11418.1723665181,"Other","African","013","Etobicoke West Mall"
"yxVsU-hiQ6Fh9tNtjvqoZg","Henry Jollof","African",43.6283295269243,-79.6225265000021,NA,0,0,16231.4226910097,"Other","African",NA,NA
"hlfk9WZxWMk6gHbsazhvTg","The Suya Spot","African",43.7397277,-79.5385519,"Medium",2.5,20,14047.1162427207,"Other","African","022","Humbermede"
"fXJGLudixG2mKY1NNrwGww","Chef Mayo's Grill","African",43.6286910278459,-79.5407965603718,NA,0,0,9722.60837774559,"Other","African","159","Etobicoke City Centre"
"09_mS7ug2Wuj-bRruY5AzQ","Ola Restaurant & Catering Services","African",43.6982348,-79.5027524,NA,0,0,8738.95774491858,"Other","African","030","Brookhaven-Amesbury"
"2w1XyqzBe5rsQi2hYoXM-A","Picasso Grillz","African",43.7632474388346,-79.4991241,NA,0,0,14481.7297293759,"Other","African","027","York University Heights"
"xtm1TGGNWXHi-GPGyXZ36Q","New Banadir Restaurant","African",43.70017,-79.50994,NA,3.5,2,9297.45287330385,"Other","African","113","Weston"
"O192IrdMOuXbPkndfEmnag","Da6Spot","African",43.600236,-79.506965,NA,0,0,8474.28788226138,"Other","African","018","New Toronto"
"jkk4HpjVD0mI6RnhuAtbow","Nando's Peri-Peri","African, Portuguese, Chicken Wings",43.637976,-79.622623,"Medium",3.5,62,16167.6162839307,"Other","European",NA,NA
"7XCURHVUvP9KjXKNCYAQ_w","Benin Cafe","African",43.7248869962923,-79.5508895069361,NA,3,1,13602.1391331866,"Other","African","005","Elms-Old Rexdale"
"9rvRHoEgbUDAx4jbzv80uQ","Memories of Africa","African",43.72566,-79.31279,"Low",2.7,3,12498.0398145613,"Other","African","043","Victoria Village"
"ELOZiUAykvEPKFw6GF-aAQ","Blessinglicious","African",43.72148,-79.23607,NA,4.2,5,17188.7188107627,"Other","African","123","Cliffcrest"
"4gSHCPq3wHEsKpiAmZHIIg","Come & See Restaurant","Bars, African",43.7236612,-79.4938154,NA,0,0,10426.1452058226,"Bar","African","154","Oakdale-Beverley Heights"
"Oo7Ar9krP0lKFjqcjL41-Q","Zoal Restaurant","African, Falafel, Turkish",43.6041676692514,-79.5904118567705,NA,5,1,14295.2589371485,"Other","Middle Eastern",NA,NA
"7mRKyX7ryuJTPs3Rcaxh4A","Hamdi Restaurant","African, Imported Food",43.7143226,-79.5570968,"Medium",3.3,26,13275.8716589949,"Other","African","004","Rexdale-Kipling"
"8sFxLfEAU49t-4SVaXLlgg","Dire Dawa Restaurant","African, Middle Eastern",43.65835,-79.36584,NA,0,0,4766.1392792174,"Other","Middle Eastern","073","Moss Park"
"nIVTuKveE2655tjwObZBEw","Tayari Eastafrican Restaurant","African",43.73965,-79.30804,NA,0,0,13934.4684058612,"Other","African","119","Wexford/Maryvale"
"hK9TzYbhH3EtzjqLIWcAAQ","Little Naija Restaurant","Caribbean, African",43.7505729991357,-79.5839483888855,NA,1,1,17481.9166584671,"Other","Latin American","002","Mount Olive-Silverstone-Jamestown"
"k5o2AcLFGPA7ysbESAIdaQ","African Village","African",43.720985,-79.537047,NA,2.5,4,12480.2456155143,"Other","African","023","Pelmo Park-Humberlea"
"iJ2m622G8BXUF8U0O8N09Q","Taste and See Unique African Kitchen","African",43.7566371311195,-79.5193906500936,NA,2.3,3,14622.2310267245,"Other","African","025","Glenfield-Jane Heights"
"7yKiBNv5wpr4xEHIisAXOg","Golden Gate restaurant","African",43.7235107,-79.5598984,NA,3.2,5,14068.9307316308,"Other","African","004","Rexdale-Kipling"
"-DTlo5jorYvIrhyIc0j7zA","The Suya Spot","Barbeque, African",43.6084538916381,-79.5835608122379,NA,0,0,13622.2451039464,"Bar","African",NA,NA
"LQsTpESyQvw2eUYUpOZVCA","Adeoye Foods","Food Delivery Services, African",43.56737,-79.56894,NA,0,0,14665.3176326677,"Other","African",NA,NA
"nLXW_Vao4AHnIHQJbGggkw","R Square Restaurant & Bar","Bars, Caribbean, African",43.7161364,-79.2624641,NA,0,0,15063.9611362961,"Bar","Latin American","120","Clairlea-Birchmount"
"COExayvsDDJOjWTOFZ7a4A","Panafest","Bars, African",43.7420692,-79.5143433,NA,3.4,5,13044.8543553063,"Bar","African","025","Glenfield-Jane Heights"
"nEoMphufoYSbKrrjglkTew","Tribe Lounge","Bars, Chicken Wings, African",43.76521,-79.48823,NA,0,0,14350.0243362436,"Bar","African","027","York University Heights"
"kg86Wl-FquStjKZYAsoPTw","Regalz Kitchen & Bar","American, African, Bars",43.76992,-79.55117,NA,2.3,3,17308.4661503972,"Bar","North American",NA,NA
"_55HxxjTWf1PcGJpVmg5Uw","Akhigbe Nigerian Caterers","African",43.78658,-79.27664,NA,2,1,19622.7711148287,"Other","African","128","Agincourt South-Malvern West"
"yK145_-1BSYzwgn3xjebsA","Charloma Star African and Caribbean Restaurant","African, Caribbean, Food Delivery Services",43.73555,-79.25094,NA,1,1,17027.1026020729,"Other","Latin American","124","Kennedy Park"
"j1-tmfx_ECZK7_oUPHp_QQ","The Suya Spot Bistro Vaughan","Barbeque, African, Bistros",43.7906782043251,-79.5466853,NA,3,1,18993.4443508989,"Bar","African",NA,NA
"t8wHVDL4TQ-WLw8KBumhtQ","OBCuisine","Comfort Food, African",43.76258,-79.50422,NA,0,0,14593.2574820776,"Other","African","027","York University Heights"
"CJig42RJD83_dq45Undihw","Buka gourmet foods","African",43.70469,-79.56475,NA,0,0,13245.0663407144,"Other","African","001","West Humber-Clairville"
"AiMomkhkh6lzKKMYJp9DeQ","Daymi","Arabic",43.6414918747152,-79.4332476,NA,5,2,991.074484450749,"Other","Middle Eastern","086","Roncesvalles"
"vxP5ni5sJcAe8mFkMB8UWw","Zafoon","Middle Eastern, Mediterranean, Arabic",43.657121,-79.405464,NA,5,1,1869.40312591762,"Other","Mediterranean","079","University"
"m_KxjrHzcVgYgtiPlmqFYA","Zezafoun Syrian Cuisine","Syrian, Middle Eastern, Arabic",43.70267,-79.39712,"Medium",4.5,129,6677.05418655828,"Other","Middle Eastern","174","South Eglinton-Davisville"
"yBrTd1g88erfwfplf-4trw","Sultan Lounge","Arabic",43.6550772,-79.3861889,NA,5,1,3089.95472725691,"Other","Middle Eastern","170","Yonge-Bay Corridor"
"68HMOQ42vNOnTJ14bv_RxQ","Mandi Afandi","Arabic, Middle Eastern",43.708328,-79.3426392,NA,4.4,10,9477.25366523222,"Other","Middle Eastern","055","Thorncliffe Park"
"2cJUG8ibxVFXEoYbjD2spg","Poutine Hub","Arabic, Asian Fusion, American",43.6560219563019,-79.3643452227116,NA,5,6,4802.39502291991,"Other","East Asian","072","Regent Park"
"IWswEzBgigaToCz5UM-H6g","Toma’s Grill Room","Middle Eastern, Arabic",43.77216,-79.54276,NA,5,4,17056.6882119046,"Other","Middle Eastern",NA,NA
"AwIoLB_bDuQxNqd5TfpmKg","Walima","Middle Eastern, Arabic, Halal",43.60525,-79.58972,NA,4.6,10,14186.3835767726,"Other","Middle Eastern",NA,NA
"9ICLRaJcfFW24R4N_pKp9g","Mandi Afandi","Arabic, Middle Eastern",43.63642,-79.62307,NA,4.5,20,16196.0016328213,"Other","Middle Eastern",NA,NA
"h3qZZBtRVBFlhr-KXFW9vA","Alforat Restaurant","Arabic",43.73636,-79.30813,NA,4.1,20,13659.6815619131,"Other","Middle Eastern","043","Victoria Village"
"_f_ajNgcff2mFzqjmxRItA","Golden Falafel","Falafel, Lebanese, Arabic",43.66571,-79.47413,NA,4.5,2,4741.0990581607,"Other","Middle Eastern","090","Junction Area"
"By9ej8N7bzn_NqbcVhaLtw","Kababia","Middle Eastern, Mediterranean, Arabic",43.68178,-79.33198,NA,3.7,19,8300.57417645297,"Other","Mediterranean","066","Danforth"
"xtzar83lfAQdHMoePUr9Zg","Arabian Bites","Middle Eastern, Arabic",43.65734,-79.38093,NA,3,2,3587.88933075036,"Other","Middle Eastern","168","Downtown Yonge East"
"aCNiO3KPX-nB2vdSRFjxdQ","Palmyra Mediterranean House","Middle Eastern, Arabic, Falafel",43.6500811574448,-79.6041967664423,"Medium",4.2,95,14650.3755262974,"Other","Middle Eastern","011","Eringate-Centennial-West Deane"
"yrc9qyzzHVS3vWBb9ROhqg","Sahara Restaurant","Arabic, Lebanese",43.62081,-79.57199,NA,4,4,12484.2684837333,"Other","Middle Eastern",NA,NA
"FHxjtI37fZ6VQhdKFIzSTQ","Fantasic Shawarma","Middle Eastern, Arabic",43.74895,-79.56081,NA,5,1,16013.07195239,"Other","Middle Eastern","021","Humber Summit"
"oxf2YmE4puqDRK0o-If_wg","Aldiwan Restaurant","Middle Eastern, Halal, Arabic",43.75958252,-79.22731018,NA,5,2,20173.974676124,"Other","Middle Eastern","142","Woburn North"
"f55iVMl9HHD5Ql0PXl9nYA","Mangoss Restaurant &Lounge","Arabic",43.5562402909913,-79.5811110192564,NA,0,0,16190.3683173037,"Other","Middle Eastern",NA,NA
"q8nGUfAsaoQ8iXwSszPosA","Wadi Food","Arabic, Grocery, Bakeries",43.7451782,-79.2971573,NA,0,0,14965.263001663,"Cafe/Bakery","Middle Eastern","119","Wexford/Maryvale"
"5HeJ9wyEYq9ua5WGxXVjJA","Vos Restaurante Argentino","Argentine",43.6542227481167,-79.423148644379,NA,4.1,44,976.059655753521,"Other","Latin American","081","Trinity-Bellwoods"
"xPP39VfL_uYgKtWkzp_3Sw","Bacan","Argentine, Venezuelan, Desserts",43.6501,-79.4502,NA,3.8,24,2311.37321759227,"Cafe/Bakery","Latin American","086","Roncesvalles"
"UM8ihaRBBW-aJg3pX7CyQw","Gaucho Pie","Argentine",43.6710432483332,-79.4347860664129,NA,4.3,10,3017.76523935278,"Other","Latin American","171","Junction-Wallace Emerson"
"_bTENhxpXDmJozpIU75Hqg","Super Empanada","Latin American, Argentine",43.64507,-79.41588,NA,5,3,520.360069738468,"Other","Latin American","081","Trinity-Bellwoods"
"mkR9joqBBO1hkOi_CkeV-A","The Grill McCoy","Argentine",43.65473,-79.40231,NA,5,2,1912.84413555309,"Other","Latin American","078","Kensington-Chinatown"
"hxsa9bs_ZUR14yOBgTSvzw","W Cabaret","French, Argentine, Italian",43.6440887,-79.4201965,NA,2,1,231.854768187757,"Other","European","081","Trinity-Bellwoods"
"oQBaJYzTsh_jVnMfbRi_bQ","La Empanada Cafe","Argentine, Cafes, Sandwiches",43.76992,-79.55117,NA,4.3,12,17308.4661503972,"Cafe/Bakery","Latin American",NA,NA
"FdiKT3rO0PooQMAWCO4R5Q","La Parrilla","Barbeque, Argentine",43.82124,-79.55598,"Medium",3.9,19,22307.91127899,"Bar","Latin American",NA,NA
"uVyrgJMqfmzwzDIK465DJg","Reds","Venues & Event Spaces, Argentine, Wine Bars",43.593752,-79.643242,"High",3.7,163,18697.6670595417,"Bar","Latin American",NA,NA
"EcKbNjqN41x7oZQN1efu2g","Las Brasas","Argentine",43.8561214483702,-79.4343927875161,NA,4,2,23443.6963659833,"Other","Latin American",NA,NA
"OvH3SpnJtujvcVCwi_H6nw","Vos Rapido","Argentine, Desserts, Salad",43.6286793986376,-79.5407866314054,NA,0,0,9722.07335602398,"Cafe/Bakery","Latin American","159","Etobicoke City Centre"
"awaQ7qChkqvlpqZcQT0Rcg","Home of Empanada","Argentine",43.75952,-79.22336,NA,5,1,20403.1444111415,"Other","Latin American","141","Golfdale-Cedarbrae-Woburn"
"M6eb5ISVJdiI8W7oHBHeEw","Midnight Market","Lounges, Asian Fusion",43.656738999529,-79.4073457,NA,4.6,14,1733.02234719357,"Lounges","East Asian","079","University"
"c78Pat78fVUBFPXYeVvbaQ","Oddseoul","Korean, Dive Bars, Asian Fusion",43.646192,-79.419762,"Medium",3.8,349,211.050491637271,"Bar","East Asian","081","Trinity-Bellwoods"
"B5JCODx4728Ce2Qca1NFHw","Hanmoto","Japanese, Asian Fusion",43.6496209524867,-79.4230549132067,"Medium",4.2,251,466.331161424066,"Other","East Asian","081","Trinity-Bellwoods"
"9BKIXfn0JMcVKILLs1mghg","Holy Cow Japanese Steakhouse","Steakhouses, Halal, Asian Fusion",43.64993,-79.39145,"High",4.2,194,2528.4745766454,"Steakhouses","East Asian","078","Kensington-Chinatown"
"zHNk2BnANwkvHvaXD7yYsg","Té","Asian Fusion, Korean, Comfort Food",43.64576,-79.4196739300594,"Medium",3.9,127,207.855762277176,"Other","East Asian","081","Trinity-Bellwoods"
"saijdv-vXJrvsCfvr7SZOw","Katsuya","Japanese, Asian Fusion",43.65995,-79.37882,"Medium",4.4,545,3847.51156984621,"Other","East Asian","168","Downtown Yonge East"
"6hGEIpALyUhte4grCY8Hog","The Opium Bar","Whiskey Bars, Asian Fusion, Cocktail Bars",43.64928,-79.42628,NA,4.3,23,545.146227643332,"Bar","East Asian","084","Little Portugal"
"7Y2cEnsAUkm6YhP_NSKpYQ","Flaming Kitchen","Chinese, Asian Fusion, Hot Pot",43.6622853,-79.3837757,NA,5,2,3614.56405210888,"Other","East Asian","169","Bay-Cloverhill"
"5UgSHCX-V0iXagxUZ9LEXg","Her Chef","Asian Fusion, Poke, Chicken Shop",43.66457,-79.41292,"Medium",4.6,69,2252.70534393595,"Other","East Asian","080","Palmerston-Little Italy"
"PwyLszmQF28p-84afsbAOA","Hakka Wok Hei","Hakka, Asian Fusion, Indian",43.6501366,-79.4502818,NA,5,4,2316.24335007634,"Other","South Asian","086","Roncesvalles"
"CnPJIGIxTYkIvaWiG9hjTQ","Fallen Feather","Cocktail Bars, Venues & Event Spaces, Asian Fusion",43.6488437159197,-79.4204173,NA,5,1,402.351566373086,"Bar","East Asian","081","Trinity-Bellwoods"
"domzjJcaFF_R693W4SM8jg","Bảnk Bao","Asian Fusion",43.655946,-79.39889,NA,4.4,14,2211.28317185885,"Other","East Asian","078","Kensington-Chinatown"
"pZ5Xqo784Ppkol2WERFWBA","Jaffna Street Food","Asian Fusion, Fast Food, Sri Lankan",43.6543,-79.39041,NA,4.7,6,2730.52650077424,"Fast Food","South Asian","078","Kensington-Chinatown"
"3aTV63AWpUObtZhrFAp5nA","Three Monks and a Duck","Vegetarian, Asian Fusion, Tapas Bars",43.64605,-79.40897,NA,3.9,85,1065.63231213527,"Bar","East Asian","162","West Queen West"
"snw9iNNLpFYZeHotW00uVA","Lee","Asian Fusion",43.6471911512614,-79.3993497,"High",4.1,795,1850.59148732273,"Other","East Asian","164","Wellington Place"
"Aa8igiy4pizfz8XrNqBU4g","Hunan Restaurant","Chinese, Hot Pot, Asian Fusion",43.662376880583,-79.3836633254627,NA,5,1,3627.5691179984,"Other","East Asian","169","Bay-Cloverhill"
"dy0O7DaSUd49NZWSEtvz_g","Foxley Bistro and Bar","Asian Fusion, Tapas Bars",43.64865,-79.42024,"High",4.1,144,387.99395422274,"Bar","East Asian","081","Trinity-Bellwoods"
"BUYhAuPrKRVGov12Q8vsIw","Soya Mandarin Kitchen","Chinese, Asian Fusion",43.65588,-79.39329,NA,4.1,47,2599.31951692102,"Other","East Asian","078","Kensington-Chinatown"
"cO1k0ZuTbY4ppXDbClGhZA","Silk Road Lounge & Restaurant","Asian Fusion, Middle Eastern, Cocktail Bars",43.64503,-79.41608,NA,4.3,12,497.813491900203,"Bar","East Asian","081","Trinity-Bellwoods"
"gcD74zZvgd_sAO0R1o4waQ","Garleek Kitchen","Asian Fusion, Breakfast & Brunch, Himalayan/Nepalese",43.64046,-79.43811,"Medium",4.6,60,1397.86817516508,"Brunch/Breakfast","South Asian","086","Roncesvalles"
"xvIHptTTTQzasrJh2AJQUQ","Dopamina","Mediterranean, Asian Fusion, Tapas Bars",43.6623153826778,-79.3865586072206,NA,4.5,2,3426.74052883756,"Bar","Mediterranean","169","Bay-Cloverhill"
"lIGkmfP13Kb4VjbiCgj0Xg","Jade","Asian Fusion",43.673972,-79.3959985889549,NA,5,3,3807.30118799876,"Other","East Asian","095","Annex"
"7i0kkZ79MMkI59qCGilltQ","Norling","Himalayan/Nepalese, Asian Fusion",43.6403518512511,-79.4385082,"Low",4.1,74,1428.45638717281,"Other","South Asian","086","Roncesvalles"
"b7wUWVV01xaa7E0FUNMDiw","DaiLo","Chinese, Asian Fusion",43.65574,-79.4098,"High",4.2,349,1522.43455635809,"Other","East Asian","081","Trinity-Bellwoods"
"xtGdYkXb4_IE2aSRILzkgQ","Kani","Asian Fusion",43.6472584014356,-79.4026156856018,NA,5,1,1590.36103539314,"Other","East Asian","164","Wellington Place"
"5aYSFNex10jLwTp9mrIZeA","Yubu","Sushi Bars, Korean, Asian Fusion",43.6586799943055,-79.3950836732984,NA,4,11,2631.75828664491,"Bar","East Asian","078","Kensington-Chinatown"
"n2NRR4N-kmeDvhHJivHGkA","Gyu-Kaku Japanese BBQ","Japanese, Barbeque, Asian Fusion",43.6516056,-79.3748825442444,"High",4.1,223,3869.82025907278,"Bar","East Asian","168","Downtown Yonge East"
"Vsdbh4cpYb4ZS4AaJSA2Nw","Poong Moon","Asian Fusion, Korean, Noodles",43.79058,-79.41854,"Medium",4.4,47,16132.6060678879,"Other","East Asian","036","Newtonbrook West"
"jrZ8fnMsvDjZRD7knuzJkg","SeoulChild","Korean, Asian Fusion, Sandwiches",43.6535528,-79.366828,NA,5,1,4543.33611235515,"Deli/Sandwiches","East Asian","073","Moss Park"
"K5Q2vkF5UpytV9Q1rB-5Yg","Akira Back","Japanese, Korean, Asian Fusion",43.64541,-79.3923,"Extra High",4,230,2388.43504315728,"Other","East Asian","164","Wellington Place"
"4eqHtgdXEPG6V-Jzy0MhKw","Miss Things","Cocktail Bars, Asian Fusion, Hawaiian",43.6414601,-79.431879,"High",3.4,168,895.634632477694,"Bar","East Asian","085","South Parkdale"
"CajgenexIctPku94HnkSow","Mikaku Udon Bar","Asian Fusion, Japanese, Breakfast & Brunch",43.6639110039464,-79.3685874492667,NA,4.7,12,4777.67111927246,"Brunch/Breakfast","East Asian","073","Moss Park"
"yP71_LfUPnGIRqA2g09RoQ","Lake Inez","Bars, Asian Fusion",43.67234,-79.32064,"High",4.4,115,8699.59268452159,"Bar","East Asian","065","Greenwood-Coxwell"
"smCdDkC7aWPrpquxhuxSXg","Poppadum","Indian, Asian Fusion, Pop-Up Restaurants",43.672472,-79.3879,NA,4.8,9,4080.06171039005,"Street Food","South Asian","095","Annex"
"vO4rIXzsK3aWn1EZ4cHwXQ","Mother Tongue","Cocktail Bars, Asian Fusion",43.6473760746769,-79.3932983,NA,3.8,85,2337.20375097482,"Bar","East Asian","164","Wellington Place"
"a_YDkm5D5W2x8qGBke3qaw","Takoyaki6ix","Asian Fusion, Japanese",43.6550705,-79.3999101,NA,4.6,21,2088.83672060197,"Other","East Asian","078","Kensington-Chinatown"
"JG9UpsFR6hrqQqsKh_RyaQ","PLANTA Yorkville","Vegetarian, Sushi Bars, Asian Fusion",43.67028,-79.38945,"Medium",3.9,538,3810.49474675219,"Bar","East Asian","095","Annex"
"WN3NSIJQHfxtjf1kV7snVA","Kevin's Taiyaki","Specialty Food, Asian Fusion, Japanese",43.6638145279363,-79.4162761,"Low",4.5,81,2095.20004818666,"Other","East Asian","080","Palmerston-Little Italy"
"S7aRQKxj_IMuA0SBlrMZ5A","Momo Ghar West","Asian Fusion",43.649973,-79.482693,NA,4.8,5,4889.67568978312,"Other","East Asian","089","Runnymede-Bloor West Village"
"zE0Og7r_KILoREfBwP6s0Q","Akin","Asian Fusion",43.6489873122877,-79.3747873,NA,4,2,3836.93949089428,"Other","East Asian","168","Downtown Yonge East"
"uGLAEGqeJa4jtP1Io0sOrg","Mineral","Noodles, Seafood, Asian Fusion",43.67763,-79.38947,NA,4.5,37,4443.67117382001,"Other","East Asian","098","Rosedale-Moore Park"
"_5XClj4E5VCIsEscbrrPKg","LoPan","Cocktail Bars, Chinese, Asian Fusion",43.65574,-79.4098,"High",4.2,26,1522.43455635809,"Bar","East Asian","081","Trinity-Bellwoods"
"fp8h0LdbO5WxiK41oYgZVA","Idle On Bloor","Lounges, Asian Fusion",43.6603,-79.43255,"Medium",3.4,12,1844.64351033614,"Lounges","East Asian","083","Dufferin Grove"
"OXW2erFOPT-Oov6wChxWYA","Lee Chen Asian Bistro - King","Dim Sum, Asian Fusion",43.6473690555399,-79.3867627903819,"Medium",3.9,231,2861.23752616316,"Other","East Asian","164","Wellington Place"
"L41ZNl-dodbQMkckxA7eMA","Thairoomgrand","Thai, Malaysian, Asian Fusion",43.7049801,-79.4077478,"Medium",4.3,33,6717.04454831678,"Other","East Asian","100","Yonge-Eglinton"
"mrPohrKI8RLFwnJmB7LKsg","Petit Potato","Asian Fusion",43.6661844,-79.387415,NA,4,13,3626.03498285757,"Other","East Asian","169","Bay-Cloverhill"
"bNynUUb2uYtHGLSD7mS3Bw","Shangrila Tibetan & Asian Cuisine","Himalayan/Nepalese, Asian Fusion, Diners",43.6397400555351,-79.4415438622399,"Medium",4.1,99,1679.97533400551,"Diner","South Asian","086","Roncesvalles"
"IZk4I8rDH7b5WFdx5jmPRA","Pho Lang Van","Vietnamese, Asian Fusion",43.6795756759952,-79.4361752983373,"Medium",4,58,3954.86769186854,"Other","East Asian","092","Corso Italia-Davenport"
"N0l4hT7UCywbZ9UEZ1R9kQ","Patois Toronto","Chinese, Asian Fusion, Caribbean",43.65202,-79.40816,"Medium",3.7,379,1340.81206689076,"Other","East Asian","081","Trinity-Bellwoods"
"WpK-mZ7w-304c78MOEYH6A","Mai Bistro","Asian Fusion, Latin American, Tapas/Small Plates",43.6490027,-79.5285543,"Medium",4.4,102,8564.28625012377,"Other","East Asian","158","Islington"
"b_TEIB6JagOmSvzz2fyBLQ","Happy Tangle","Asian Fusion, Noodles, Dumplings",43.652781341443,-79.3801761031594,NA,2.5,2,3479.56321914633,"Other","East Asian","170","Yonge-Bay Corridor"
"ZDn09j2BtGBZHPsXv2m4oA","The Lost Land","Asian Fusion, Salad",43.651275,-79.3790426478504,NA,3,3,3533.94666246106,"Other","East Asian","170","Yonge-Bay Corridor"
"K2CdjES-IZDDEgetOnf0Vw","One2 Snacks","Malaysian, Chinese, Asian Fusion",43.7866073,-79.2767206,"Low",4.5,268,19571.4966999469,"Other","East Asian","128","Agincourt South-Malvern West"
"o4EbxgAFBXOYIx8-aMZdgw","My Meatball Place","Asian Fusion",43.6441043655965,-79.4008460764451,NA,4.7,6,1727.00556795925,"Other","East Asian","164","Wellington Place"
"p82Oz-NOHn-MAZQ0jQBkNg","Riki Sushi","Asian Fusion, Sushi Bars",43.6623,-79.42287,"Medium",3.7,25,1885.11727764665,"Bar","East Asian","080","Palmerston-Little Italy"
"WQ7j7zNz2sYc3OAQ0gSqaw","Reckless Kitchen","Food Delivery Services, Pop-Up Restaurants, Asian Fusion",43.6544157,-79.4670037,NA,0,0,3737.4882822854,"Street Food","East Asian","088","High Park North"
"H572i_MvhPy-nEegESfzvQ","Wok Boyz","Fast Food, Chinese, Asian Fusion",43.638292,-79.41841,NA,3.7,6,878.344208198074,"Fast Food","East Asian","163","Fort York-Liberty Village"
"U2fAN5cZTMKm9mvQns-VKw","PLANTA Queen Entertainment District","Asian Fusion, Sushi Bars, Vegetarian",43.650769,-79.388083,"High",4.1,205,2810.74706762899,"Bar","East Asian","078","Kensington-Chinatown"
"7HnNtVKaYkZQ1ucInJJTmA","Roll & Bowl","Asian Fusion",43.65899,-79.44242,NA,5,1,2229.93892018415,"Other","East Asian","171","Junction-Wallace Emerson"
"TqyG5p4KgszxsezpgDFsCw","Katsuya","Japanese, Asian Fusion",43.731431,-79.4591441,"Medium",4.8,48,10008.7140696261,"Other","East Asian","155","Downsview"
"LWI8ULsw0X1FpInux4Tg5Q","Martino's Pizza & Asian Fusion Kitchen","Pizza, Asian Fusion",43.675568,-79.4036442,"Medium",3.8,50,3665.35669619222,"Street Food","East Asian","095","Annex"
"ttuEwktrkmh3TUlSFPZqAA","Banh Mi Boys","Vietnamese, Asian Fusion",43.6571516683436,-79.3808931703301,"Low",4.1,530,3570.12246565653,"Other","East Asian","168","Downtown Yonge East"
"OC9OMsOUo7pUIeXZAaRyDQ","High Town Izakaya","Asian Fusion",43.6558223197504,-79.393726810813,NA,4,1,2565.65397353059,"Other","East Asian","078","Kensington-Chinatown"
"7pUj3i1KjCE5jEgcqhccng","ON/OFF","Asian Fusion, Cocktail Bars",43.777683,-79.41466,"Medium",4.4,65,14715.9588841221,"Bar","East Asian","151","Yonge-Doris"
"vQGZjrDiDBuznOkUevBNzw","Los Vietnamita Taqueria Shop","Mexican, Asian Fusion, Vietnamese",43.7054433643552,-79.3136256560683,NA,4.4,37,10988.8016503457,"Other","East Asian","054","O'Connor-Parkview"
"ZhACHVw9k438Z3i-Gw9BHA","Banh Mi Boys","Vietnamese, Asian Fusion",43.7092,-79.39857,"Low",4.2,130,7333.47531505779,"Other","East Asian","173","North Toronto"
"NyQey4tR7en-l24ChgYEag","Food & Liquor","Bars, Asian Fusion",43.6396914930533,-79.4418681207147,"Medium",3.9,26,1706.1736614485,"Bar","East Asian","086","Roncesvalles"
"bLtC8xJXkd1b6MT0KjnSvw","The Captain's Boil","Seafood, Cajun/Creole, Asian Fusion",43.66237,-79.38378,"Medium",3.4,242,3615.56089786615,"Other","East Asian","169","Bay-Cloverhill"
"5-b5tD7VLlDwundbe85l7A","Sukhothai","Thai, Asian Fusion, Soup",43.6538304437445,-79.3544602345607,NA,3.1,59,5530.95278007522,"Other","East Asian","166","St Lawrence-East Bayfront-The Islands"
"AakkkTuGZA2KBodKi2_u8A","Pho Phuong Vietnamese Restaurant ","Vietnamese, Asian Fusion",43.64967,-79.43513,"Medium",3.3,68,1137.60021482812,"Other","East Asian","084","Little Portugal"
"KAyQ07GqrfP1VW5MhxvEHg","Cafe Pho Nho","Vietnamese, Bars, Asian Fusion",43.65219,-79.44751,"Low",3.7,84,2172.64421348755,"Bar","East Asian","086","Roncesvalles"
"ctTiEiUTY_FvnZ0ovBeZWQ","Ho Ga Oriental Cuisine","Asian Fusion, Korean",43.64768,-79.38294,"Low",4,44,3163.20698398933,"Other","East Asian","170","Yonge-Bay Corridor"
"tCJjzxEcTWwdqIpIvZEP-g","Yummy House","Chinese, Fast Food, Asian Fusion",43.66954,-79.3359,"Low",4.3,17,7442.50015528428,"Fast Food","East Asian","070","South Riverdale"
"3cAy1gxlprn1ue0q3L_ziw","Lee Chen Bistro","Dim Sum, Asian Fusion, Wine Bars",43.672372,-79.387436,"Medium",3.6,183,4096.42878142303,"Bar","East Asian","098","Rosedale-Moore Park"
"EwWXzIUdEWFT2CUJJBbGRg","Thien Tam Restaurant","Asian Fusion, Vegan, Vegetarian",43.665229,-79.466295,NA,4.3,3,4161.18365125821,"Other","East Asian","090","Junction Area"
"a_gJI14yubijGv2fTUDv6w","Chillax Eatery & Mart","Noodles, Breakfast & Brunch, Asian Fusion",43.7584367078675,-79.4097755,NA,4.5,6,12601.0934711937,"Brunch/Breakfast","East Asian","153","Avondale"
"K3aA7iJGoYsJh0cl8O1w-w","Thairoomgrand - Etobicoke","Thai, Asian Fusion, Malaysian",43.6446667,-79.5329271,NA,4.7,19,8907.88305837823,"Other","East Asian","158","Islington"
"0uEidTfcs-9GAMJXLvIYTw","Blooming Orchid","Chinese, Sushi Bars, Asian Fusion",43.70327,-79.41388,NA,4.4,29,6457.20192649908,"Bar","East Asian","101","Forest Hill South"
"mBe1a6rjq5d0bbWl6rRDZg","Neon Tiger","Chicken Wings, Asian Fusion, Mexican",43.67726,-79.39828,NA,4.2,6,4024.53498044335,"Other","East Asian","095","Annex"
"1mXyISSj1oZKr25BW236aA","Makan","Asian Fusion",43.64996,-79.3891,NA,3.4,13,2708.65009145437,"Other","East Asian","164","Wellington Place"
"e178giuAicIhb16ymOtiBg","R&D Restaurant","Asian Fusion, Chinese",43.651598,-79.397212,"High",3.6,324,2124.81432666174,"Other","East Asian","078","Kensington-Chinatown"
"TMn3xLDiI9_y-AgTYb1gSA","The Captain's Boil","Cajun/Creole, Seafood, Asian Fusion",43.71582,-79.39989,NA,4,41,8023.80523151018,"Other","East Asian","099","Mount Pleasant East"
"nO3kpfkIrnoKRb4cizX0vg","Danico","Wine Bars, Asian Fusion, Italian",43.6568521843797,-79.4074500356919,NA,4.5,13,1736.38508691938,"Bar","European","079","University"
"xiJ6QkxxXkcRewctfhJneg","Coconut Grove","Pan Asian, Indian, Asian Fusion",43.7768071916995,-79.3465729055884,NA,3.8,5,15819.3054012203,"Other","South Asian","047","Don Valley Village"
"sOACp1Z6SOihe1HMzzqK5Q","Tiny Cafe","Dumplings, Asian Fusion",43.6407,-79.43815,NA,4.1,10,1391.21202843296,"Other","East Asian","086","Roncesvalles"
"kR7DSZx4ufRKxFKTdhlRIg","Nozomi Fusion Kitchen","Asian Fusion, Burgers, Poke",43.7270499,-79.4312769,"Medium",4.6,28,9096.14949748558,"Street Food","East Asian","039","Bedford Park-Nortown"
"teV3cZ_QYvDzZ8kE9dMkLA","Curry Up Annex","Asian Fusion, Thai, Noodles",43.66543,-79.40875,NA,5,1,2466.83830319318,"Other","East Asian","079","University"
"lIEahf71RLPJ_rFBJ5fqzQ","Sala Modern Thai Kitchen & Bar","Thai, Asian Fusion",43.6819991223223,-79.3307374790311,"Medium",4.5,217,8405.7442796603,"Other","East Asian","066","Danforth"
"Dib3cIHWyDVKDZTMm580iQ","Rolltation","Asian Fusion, Sushi Bars",43.66939,-79.3867099,"Medium",4.1,49,3912.97795501734,"Bar","East Asian","169","Bay-Cloverhill"
"XOkqRJBS6HwTVlrCACAZFw","Queen Mother Cafe","Asian Fusion, Thai",43.6503804,-79.3891296,"Medium",3.7,319,2718.32728791956,"Other","East Asian","078","Kensington-Chinatown"
"gVILTnDFDsVuVdxFVkRK7A","The Captain's Boil","Seafood, Cajun/Creole, Asian Fusion",43.6156501,-79.5587629,"Medium",3.8,82,11478.3054395018,"Other","East Asian","159","Etobicoke City Centre"
"wl_owb-SQ2LvJdmAUcXCxw","SweetLulu","Asian Fusion",43.64651,-79.40821,"Medium",3.6,9,1133.86728333227,"Other","East Asian","081","Trinity-Bellwoods"
"1KUrEW2O4xiyzej3G_T5ng","Moegi Sushi","Japanese, Sushi Bars, Asian Fusion",43.6495978,-79.3655404,NA,4.2,10,4583.98213745455,"Bar","East Asian","166","St Lawrence-East Bayfront-The Islands"
"wL5yGvlL1zXZ4EPJ8d0hIA","Rolltation","Sushi Bars, Asian Fusion, Poke",43.707588,-79.398147,"Medium",4,111,7167.08464769905,"Bar","East Asian","173","North Toronto"
"QhAmKLX_0AgQe5HLxode9Q","Nakamori","Japanese, Sushi Bars, Asian Fusion",43.73692,-79.24466,"High",4.1,123,17530.1838824494,"Bar","East Asian","138","Eglinton East"
"sPZHL_lx5ol_8LP5LRN89w","Baba Kitchen","Chicken Shop, Asian Fusion, Food Delivery Services",43.639363,-79.509027,NA,0,0,6993.35699685145,"Other","East Asian","016","Stonegate-Queensway"
"v1M2DI3sATaUkHfZEuDStw","Ka Chi","Korean, Asian Fusion",43.65379,-79.39505,"Medium",3.2,126,2372.67009884689,"Other","East Asian","078","Kensington-Chinatown"
"tYJCik85MNMQtNisvUkXPg","Simple Eats","Asian Fusion, Latin American, Poke",43.713749,-79.458283,NA,0,0,8212.86187925618,"Other","East Asian","031","Yorkdale-Glen Park"
"W32dIFI1_rnfO3gtMZhvMw","Vege Delight","Vegetarian, Thai, Asian Fusion",43.655013,-79.3863578,NA,4.7,6,3080.81909953791,"Other","East Asian","170","Yonge-Bay Corridor"
"nc2X2BgguGvhYRAr9PLRVA","AP Restaurants","Asian Fusion, Cocktail Bars, Seafood",43.66965,-79.38874,NA,3.8,32,3807.2353993474,"Bar","East Asian","169","Bay-Cloverhill"
"7Ik05G1Z1DCup70auX3_5Q","Momo Loco Dumplings and Wok","Dumplings, Hakka, Asian Fusion",43.6379058,-79.6228514423279,NA,3.8,6,16165.8919606535,"Other","East Asian",NA,NA
"dNYl4w8LjqSiLGwXHg8o5g","Poke Eats","Hawaiian, Poke, Asian Fusion",43.669531,-79.3033394,NA,5,3,9931.24452238789,"Other","East Asian","063","The Beaches"
"j7X92HxiN2McveR-f9e3QA","Delightfully Delicious","Burmese, Asian Fusion",43.6516310117989,-79.4037291035056,NA,3,1,1638.33642651175,"Other","East Asian","078","Kensington-Chinatown"
"14FUj22ZaV_94L-Vov3IhQ","Dim Sum Town","Dim Sum, Asian Fusion",43.650553,-79.389063,NA,4,1,2726.98312225257,"Other","East Asian","078","Kensington-Chinatown"
"bGuxRBRKv7i1BKKfGbjxEw","Katana on Bay","Asian Fusion, Sushi Bars, Japanese",43.6503044,-79.3804595,"High",3.7,97,3403.24881427312,"Bar","East Asian","170","Yonge-Bay Corridor"
"SZmm3wOx_fcC2rblUVewGA","New Treasure","Dim Sum, Asian Fusion",43.65554,-79.38549,"Low",3.3,72,3162.4458860837,"Other","East Asian","170","Yonge-Bay Corridor"
"qFHNQF3t_ZC3N1n3h0zUpQ","SweetLulu Restaurant","Asian Fusion, Noodles",43.646459,-79.4082308020293,NA,0,0,1131.44061673199,"Other","East Asian","081","Trinity-Bellwoods"
"_xbOw8_0ogrJ2IWDjoUbeg","Mi Bowl Meal","Asian Fusion, Food Delivery Services",43.694128,-79.494319,NA,0,0,7930.69318555112,"Other","East Asian","030","Brookhaven-Amesbury"
"Rnck2nc0j-FbolNiae2grg","Golden Asian Cuisine","Asian Fusion, Hakka",43.71138,-79.5652008,"Medium",4,39,13676.3125215233,"Other","East Asian","001","West Humber-Clairville"
"qIx8s1bvguUgVeIqNXCu6Q","Asian Gourmet Wok & Grill","Asian Fusion",43.7156885,-79.4466917,NA,4.5,2,8169.04688679257,"Other","East Asian","031","Yorkdale-Glen Park"
"-HwprJh-Bve1pcDH8_UFeQ","Chi Dim Sum","Asian Fusion, Tapas/Small Plates, Dim Sum",43.7106303841666,-79.3990050412378,NA,3.4,31,7482.2493675532,"Other","East Asian","173","North Toronto"
"0HEezLfueKWLCy0Jeo6MiA","Rolltation","Fast Food, Asian Fusion",43.6612099,-79.38264,"Medium",3.3,33,3609.56923593134,"Fast Food","East Asian","168","Downtown Yonge East"
"-Far2ZzTrDQaqfe_BUlaPQ","Little DaiLo","Asian Fusion, French",43.65035,-79.38378,NA,3.5,11,3125.85473180932,"Other","European","170","Yonge-Bay Corridor"
"4wi_z5qkTbopcQgK5TCq-A","Meataa Seven Charcoal BBQ","Barbeque, Asian Fusion",43.77262,-79.4133,NA,4.2,6,14154.9263850379,"Bar","East Asian","151","Yonge-Doris"
"wakI-46P1BLMnf4zdH3V2g","Westwood Grill","Dim Sum, Thai, Asian Fusion",43.65995,-79.4796,"Medium",2.7,67,4891.92268168151,"Other","East Asian","088","High Park North"
"pLj8MPkuK6OH9EtB_-6Szg","Canteen","Chinese, Asian Fusion, Noodles",43.65252,-79.39854,"Low",3.6,34,2054.52199448059,"Other","East Asian","078","Kensington-Chinatown"
"6t7U64hS_cBZtVKSP-q5Ww","Lee Kitchen","Asian Fusion, Chinese, French",43.6768792153268,-79.6122046598571,"Medium",2.1,148,15676.3052185891,"Other","European",NA,NA
"fh1D2eUnw5QWgDAWuCq7RQ","Baili Eatery and Lounge","Chinese, Asian Fusion",43.791347,-79.418827,NA,4,5,16224.2156362215,"Other","East Asian","036","Newtonbrook West"
"V_XIK99ysZ2yjc6TUiPw2Q","Lahore Chaat & Desi Burger House","Pakistani, Asian Fusion",43.6719052,-79.3246705947833,"Low",3.7,19,8380.31590361898,"Other","South Asian","065","Greenwood-Coxwell"
"_F1_05YYlvePzomZ_NFijA","To-ne Sushi","Japanese, Sushi Bars, Asian Fusion",43.64877,-79.39785,"Medium",3.8,232,1994.1126925458,"Bar","East Asian","078","Kensington-Chinatown"
"-Fj4A3blZ4dHUWi1kJGJWw","Shosei","Asian Fusion",43.645031,-79.4160767,NA,0,0,503.825237383071,"Other","East Asian","081","Trinity-Bellwoods"
"iT5LKRiUdqvVn9FZd1NnjQ","Stratus Restaurant","Indian, American, Asian Fusion",43.64663,-79.38114,NA,5,1,3305.17623515982,"Other","South Asian","170","Yonge-Bay Corridor"
"_fQYZ3EdogQcu7snWmJkTw","Fusion Grill","Asian Fusion",43.6514,-79.38312,"Low",4,2,3126.6129926454,"Other","East Asian","170","Yonge-Bay Corridor"
"57_msr8gjNakjGO-1f6B_g","Angus Pho House","Vietnamese, Asian Fusion",43.7770441,-79.4146454,"Low",3.6,261,14643.0099729067,"Other","East Asian","151","Yonge-Doris"
"5nyKUHibR4GCs6ojVljFdA","Spring Sushi","Japanese, Thai, Asian Fusion",43.6566811,-79.3806534,"High",3.1,397,3557.76619470558,"Other","East Asian","168","Downtown Yonge East"
"C8_zdU7zGLUK3uC4e5AepQ","MeNami","Japanese, Asian Fusion",43.7778302326935,-79.4147801,"Medium",3.8,579,14729.9045859192,"Other","East Asian","151","Yonge-Doris"
"OS5IyYEXgYV9_Z0iS4MkOw","Yip's Kitchen","Chinese, Asian Fusion",43.6488329,-79.3715085,"Medium",4,21,4097.87188896748,"Other","East Asian","166","St Lawrence-East Bayfront-The Islands"
"bSz_NBYzmGMq0XUq625Jow","Crane Express","Food Trucks, Asian Fusion",43.7240469606129,-79.4716868922114,NA,4,2,9599.93674497662,"Other","East Asian","031","Yorkdale-Glen Park"
"hZxWq6JM_3vZmpxjLxOBkw","Petit Potato","Noodles, Chinese, Asian Fusion",43.7687022,-79.4123463,NA,0,0,13725.7449007017,"Other","East Asian","151","Yonge-Doris"
"0sUd4i07uoQrE9DVMCLOuw","Green Mango Express","Thai, Asian Fusion, Seafood",43.62227,-79.52182,"Medium",3.9,27,8421.66392145947,"Other","East Asian","159","Etobicoke City Centre"
"nFnWpdwsDIGakU46tkK-_g","Rolltation","Salad, Poke, Asian Fusion",43.6481470272981,-79.3846555,NA,4,1,3037.59169032986,"Other","East Asian","170","Yonge-Bay Corridor"
"B3pNBzYFqrheh4fib01vPQ","The Peoples Eatery","Korean, Asian Fusion",43.66306,-79.38631,NA,3.3,3,3489.03122526633,"Other","East Asian","169","Bay-Cloverhill"
"u4W52a27BXuLIGuLkMhi1Q","Red Panda Pavilion","Asian Fusion",43.57047,-79.56525,NA,4.5,13,14218.0920261627,"Other","East Asian",NA,NA
"wKmDYX_XuYCbIerCbYfWnQ","The Captain's Boil","Seafood, Cajun/Creole, Asian Fusion",43.7548660252231,-79.3496702260202,"Medium",3,109,13490.3571383635,"Other","East Asian","042","Banbury-Don Mills"
"9bC9-prBs-xp8IIi1g9Cyg","ChiChop","Taiwanese, Asian Fusion",43.7085,-79.39903,NA,3.2,6,7256.84510507907,"Other","East Asian","100","Yonge-Eglinton"
"N8gYomVaiSiss513snlxhg","Moonlight Korean Restaurant","Korean, Asian Fusion",43.7911058,-79.4452162,NA,1.8,11,16384.9694696817,"Other","East Asian","036","Newtonbrook West"
"r5mfB_yDHbCK6kRUUTrzUQ","Yummy Delight","Asian Fusion",43.70069,-79.5171,NA,4.3,4,9790.95487235098,"Other","East Asian","113","Weston"
"b6Rv6vwJPaMAQGuSsqPPPQ","Pho East","Vietnamese, Asian Fusion",43.665809,-79.351546,"Medium",3.3,33,6119.41782749462,"Other","East Asian","068","North Riverdale"
"5fg-RNWNbqyGn8b8wqe4QQ","168 Sushi Asian Buffet","Buffets, Asian Fusion, Sushi Bars",43.78738,-79.471494,"Medium",3.3,335,16268.8317190177,"Bar","East Asian",NA,NA
"d6O0I9dwf19VyEsrtXbUXw","Asian Monsoon","Asian Fusion, Thai",43.64617,-79.4083,"Medium",3,2,1122.02539909028,"Other","East Asian","162","West Queen West"
"OQ8ttss7H4b_syk9MJRTHg","Bowl & Snacks","Asian Fusion, Sandwiches, Sushi Bars",43.660548,-79.366081,NA,3.7,3,4822.17775864311,"Bar","East Asian","072","Regent Park"
"g_xzMzcq2ped0PbJ-htaqw","Chibugan Bites","Asian Fusion, Bubble Tea, Filipino",43.6045303956358,-79.5901518,NA,0,0,14262.4746339856,"Cafe/Bakery","East Asian",NA,NA
"CDSNzkBDwWuDF5eRiJBrcA","Barrio Fiesta - The Original","Filipino, Asian Fusion",43.7060386,-79.3446241,NA,2.6,10,9085.61889083364,"Other","East Asian","055","Thorncliffe Park"
"XlJpvi4mSRpEk78AldsXJA","Chai","Asian Fusion",43.70581,-79.3747999,NA,4,1,7712.13835465172,"Other","East Asian","056","Leaside-Bennington"
"tEUvjMgAqwE0OE0BIIe6Fw","Fusia Asian Kitchen","Asian Fusion",43.65621,-79.38326,"Low",1.5,16,3398.80384452471,"Other","East Asian","170","Yonge-Bay Corridor"
"HsE9fnMjJuDAQCWC4ssSwQ","Kim Asia Cuisine","Asian Fusion",43.65143,-79.40725,NA,0,0,1373.5472387905,"Other","East Asian","081","Trinity-Bellwoods"
"HDLhW6R6pUszuAzcmnYNYw","Vasan's Tacos","Asian Fusion, Mexican",43.765896738234,-79.2591020464897,NA,4.2,5,18741.5613948513,"Other","East Asian","156","Bendale-Glen Andrew"
"BdGtQGhJ8rxk-5bbFl8qxQ","Sushi On Gerrard","Sushi Bars, Asian Fusion, Japanese",43.6707643711012,-79.3280821149182,NA,4,3,8078.91449138964,"Bar","East Asian","070","South Riverdale"
"cUuDnTAya4rx5tuh7HbGyw","Mean Bao","Chinese, Asian Fusion",43.6504202641376,-79.3800179124644,NA,2.6,5,3440.37199103992,"Other","East Asian","170","Yonge-Bay Corridor"
"QDTz18m_VuDVy_SVm5qBAA","Banh Shop","Vietnamese, Asian Fusion",43.680481,-79.611729,"Medium",1.3,50,15732.8467763787,"Other","East Asian",NA,NA
"IithJLAUG3gWcHw9EKLLFA","Kim Kim Indian Hakka Chinese Restaurant","Halal, Asian Fusion",43.7535081,-79.2764809,"Low",4,90,16780.8221889381,"Other","East Asian","126","Dorset Park"
"Dvmwg8kILj2ZIZ7xRKNt-w","Chinese Burger","Asian Fusion, Burgers",43.7759134701628,-79.4135650992393,"Medium",3.7,9,14521.3032605183,"Street Food","East Asian","151","Yonge-Doris"
"ShuOiHkWzwm3jjKzb9gjzQ","Stir Fry","Asian Fusion",43.6719,-79.39473,NA,0,0,3678.24239153091,"Other","East Asian","095","Annex"
"2VtTzskzFcwVnXgGYsY1lQ","The Captain's Boil","Cajun/Creole, Seafood, Asian Fusion",43.78797,-79.2647099,"Medium",3.7,86,20275.9370023787,"Other","East Asian","128","Agincourt South-Malvern West"
"Cp01l4XUjd-6x-6v4KiIEg","K&B Sushi","Sushi Bars, Asian Fusion",43.62229,-79.52245,"Medium",2.7,235,8471.3942413435,"Bar","East Asian","159","Etobicoke City Centre"
"8eY4-c8TNCFhdFkmEIiroA","Minimarket Restaurant and Bar","Asian Fusion, Bars",43.65541,-79.4141,NA,0,0,1275.47325716946,"Bar","East Asian","080","Palmerston-Little Italy"
"ttBEqqUI1PEgYPp5qJVrMw","Baby's Catering And Takeout","Breakfast & Brunch, Asian Fusion, Canadian (New)",43.7442227166554,-79.2441097110449,NA,0,0,18045.50028814,"Brunch/Breakfast","East Asian","138","Eglinton East"
"DZPaftRrnp33cuNO9oeacg","Noodlebox","Asian Fusion, Noodles",43.7338357,-79.5335991,NA,0,0,13294.181426007,"Other","East Asian","023","Pelmo Park-Humberlea"
"j9YFHVQqxM_qKHIc4nck-A","Wong's Asian Cuisine","Hakka, Asian Fusion",43.7472917,-79.2838383064401,"Low",4.1,48,15873.5209655913,"Other","East Asian","126","Dorset Park"
"9JwJUt6C6ejrqHpCON6_9Q","Ehwa Uptown","Asian Fusion, Korean",43.76299,-79.41164,NA,4.1,22,13099.8735052696,"Other","East Asian","038","Lansing-Westgate"
"A7glw1TI5YmoIQWoMhONpQ","Mr Thai","Thai, Asian Fusion",43.68963,-79.39444,"Medium",2.4,52,5396.51441323873,"Other","East Asian","098","Rosedale-Moore Park"
"IJZrpASpveRG_BZAnP_z3w","Satay On the Road","Thai, Asian Fusion",43.70552,-79.37536,"Medium",2.8,44,7672.53014015996,"Other","East Asian","099","Mount Pleasant East"
"J5ePcNjjnPiSVulu5vvrYg","Sean's Twisted","Asian Fusion",43.72376,-79.49382,NA,3.5,6,10436.5908814554,"Other","East Asian","154","Oakdale-Beverley Heights"
"2GkDExKrdVRDfBKja5Ip0w","Mr Fish","Asian Fusion, Seafood, Chinese",43.7735385543648,-79.4136157259345,NA,3.9,17,14257.3367629832,"Other","East Asian","151","Yonge-Doris"
"lvU7Mu7YU_2Gfw6QvsKqqw","Royal Jasmine","Asian Fusion, Hakka",43.640198,-79.624775,"Medium",3.2,143,16309.0093135987,"Other","East Asian",NA,NA
"BqnRbbkvfwf7vCsncVNHIA","Thai Express","Thai, Asian Fusion, Chicken Wings",43.5930368643426,-79.568949663811,NA,5,1,13171.6650514579,"Other","East Asian",NA,NA
"5-qLovwOO5lJeRNfIX4DXA","Pho Toronto","Vietnamese, Asian Fusion",43.7427267305074,-79.31364024,NA,4.1,23,13898.4130603127,"Other","East Asian","149","Parkwoods-O'Connor Hills"
"nyB4nkT993gq0Lw8sWWwGg","I Love Pho 2","Vietnamese, Asian Fusion",43.6056913417408,-79.5856039971113,"Low",3.7,75,13874.243421461,"Other","East Asian",NA,NA
"7H8DpWzwpK1wIPHeiZtKmg","Regal On Church","Asian Fusion",43.6651863301309,-79.3805336952209,NA,0,0,4007.06595590266,"Other","East Asian","167","Church-Wellesley"
"7Gl_h0Dz4r3xEILhe6taNA","Hakka Legend Asian Cuisine","Asian Fusion, Hakka",43.776368,-79.235003,"Medium",3.4,92,20935.5834399926,"Other","East Asian","142","Woburn North"
"Q8-4uLtLJeXHJZZsr2Zexw","Sakura Garden","Asian Fusion, Dim Sum, Sushi Bars",43.73354,-79.41916,"Medium",3.4,62,9792.96348840538,"Bar","East Asian","039","Bedford Park-Nortown"
"0AIBjT1efrIPOYG_dQwXpw","My Bowls","Noodles, Asian Fusion, Thai",43.71172,-79.31403,NA,5,1,11401.5242792384,"Other","East Asian","054","O'Connor-Parkview"
"dfDmylDjZAccgMyhYPbZaA","Satay On the Road","Thai, Chinese, Asian Fusion",43.73529,-79.4195699,"Medium",3.2,72,9989.37290933693,"Other","East Asian","039","Bedford Park-Nortown"
"gpdoQaQAf28M3fpq4e6BpA","Dim-Sum-Go","Asian Fusion, Dim Sum",43.7269,-79.34207,NA,0,0,11083.8073491003,"Other","East Asian","042","Banbury-Don Mills"
"qD1XIDC7Sjce_EGnYZq06w","Sparkly Japanese Thai","Sushi Bars, Asian Fusion, Japanese",43.7862896471884,-79.5447575,"Medium",3.4,43,18497.6354363763,"Bar","East Asian",NA,NA
"KFcr654hOzQNp2sttDLvGA","Four Seasons Restaurant","Chinese, Noodles, Asian Fusion",43.77094,-79.33187,NA,5,1,15720.3221293443,"Other","East Asian","053","Henry Farm"
"wIZddVqj_-i4kKEZnHYjYA","Asian Gourmet","Asian Fusion",43.7405538,-79.5849457,NA,1,1,16869.2365384755,"Other","East Asian","002","Mount Olive-Silverstone-Jamestown"
"y745jABH5NyJYSO6fHSVUg","New York Fried Chicken & Our Kitchen","Asian Fusion",43.75362,-79.54228,NA,3.7,3,15338.797230666,"Other","East Asian","021","Humber Summit"
"Bo9uuPiAsq_z02eb87N41g","Sushi Legend","Japanese, Sushi Bars, Asian Fusion",43.7906163405589,-79.365949574113,"High",3.6,283,16761.2054649529,"Bar","East Asian","048","Hillcrest Village"
"CDnHAKiBECFV3NzsFHvRmg","Mosaic Asian Kitchen & Wine Bar","Wine Bars, Asian Fusion",43.62572,-79.5043,NA,2,1,6961.08977624114,"Bar","East Asian","016","Stonegate-Queensway"
"k9gaDDBYOOdVn0dfEMSntw","Crane Express","Food Trucks, Caterers, Asian Fusion",43.76251,-79.22596,NA,4,4,20451.8193797694,"Other","East Asian","141","Golfdale-Cedarbrae-Woburn"
"KK7H1bVOMAJnDqMhBv2zpA","Chung Moi Chinese Restaurant","Hakka, Asian Fusion",43.7324399,-79.26944,"Medium",3.9,70,15640.2686003646,"Other","East Asian","125","Ionview"
"uZPkEebO_SSMNWPtbv2LbQ","Macho Fried Rice","Asian Fusion, Fast Food, Chinese",43.77552,-79.41521,NA,3,1,14474.5875569019,"Fast Food","East Asian","037","Willowdale West"
"gXm6mmJxv-wcmXVqjTNrrQ","Philcan Kitchenette","Asian Fusion",43.76336,-79.4895447,NA,0,0,14181.7349985615,"Other","East Asian","027","York University Heights"
"wcA9l9NQ_Pkrl4qPyDtH7w","Twist By Roger Mooking","Caribbean, Breakfast & Brunch, Asian Fusion",43.6806559218387,-79.6151885770835,"Medium",2.7,128,16007.349222505,"Brunch/Breakfast","East Asian",NA,NA
"TFgvpxlyq__-XlXlkRG-RQ","Amianan Restaurant","Filipino, Asian Fusion, Thai",43.73734,-79.43516,NA,0,0,10277.7299488286,"Other","East Asian","033","Clanton Park"
"lDxPbWmbvTO-_n0qOc4aog","Top Food Asian Cuisine","Chinese, Asian Fusion, Fast Food",43.7578188823689,-79.5195837691426,NA,3,1,14741.6788272096,"Fast Food","East Asian","024","Black Creek"
"Om6lrGh8jjgYgLox1dNSFQ","Teriyaki Experience","Japanese, Soup, Asian Fusion",43.7831718791171,-79.252817225959,NA,3.8,6,20489.7786848211,"Other","East Asian","128","Agincourt South-Malvern West"
"7vGOZDl_e4dxjARcPJWBdQ","Asian Fusion","Asian Fusion, Chinese, Fast Food",43.782483,-79.292371,"Low",4,2,18633.5195697333,"Fast Food","East Asian","118","Tam O'Shanter-Sullivan"
"n8KvwllRpwzFElFT7V4E5g","Japanese Take-out","Japanese, Sushi Bars, Asian Fusion",43.7505410592697,-79.4792519652071,NA,3,2,12550.6027450022,"Bar","East Asian","155","Downsview"
"HIlocHRZaMUucOFK-cxukg","Simply Kitchen","Asian Fusion",43.7810258,-79.2474109,NA,3.7,3,20596.8091985793,"Other","East Asian","142","Woburn North"
"emyCP3Ry2SbpNrwRAtm9PQ","Pyung Won House","Korean, Asian Fusion, Hot Pot",43.77941,-79.415798,"Medium",2.5,83,14902.362324726,"Other","East Asian","037","Willowdale West"
"5hVb9c7DyE8XnDafTvANSw","Fusia Asian Kitchen","Asian Fusion",43.7229996,-79.3007813,NA,2.5,2,13025.4332938692,"Other","East Asian","120","Clairlea-Birchmount"
"dDtZ2ImsrlYcRMHIzgygvQ","Stir Fry","Asian Fusion",43.76072,-79.41045,NA,0,0,12850.0879541619,"Other","East Asian","153","Avondale"
"aP7PXEwTtkc37VQau-B9VA","Street Kitchen by Basil Box","Vietnamese, Thai, Asian Fusion",43.7624,-79.41077,NA,3.5,2,13012.8736429511,"Other","East Asian","151","Yonge-Doris"
"GGca_MR8NGs_OC_Veryafw","Steak Land","Asian Fusion",43.79478,-79.50345,"Low",4,2,17631.8071964806,"Other","East Asian",NA,NA
"h-fqgskaegL0tDdnP6OvZA","Chez Toi","Bars, Asian Fusion",43.77502,-79.52614,NA,0,0,16662.4584449033,"Bar","East Asian",NA,NA
"hY1IDTTCbHiqBnZc8bx99Q","Hakka Eleven","Caribbean, Asian Fusion, Chicken Wings",43.75347,-79.25346,NA,0,0,18113.9604917848,"Other","East Asian","157","Bendale South"
"vRuD9awneiGqZgwYPUjEGA","King Asian Restaurant","Chinese, Asian Fusion",43.5783689,-79.6139774,"Medium",2.7,29,17206.2994639223,"Other","East Asian",NA,NA
"wLMoBgXzeUNWD7IeZdXGrw","Old Country Inn Restaurant","Austrian",43.86787,-79.31272,"Medium",3.7,106,26244.0960266704,"Other","European",NA,NA
"gbBkhe4bwbmutGcopNRbCg","Bancan Kitchen","Indian, Bangladeshi",43.7134365916899,-79.3666625,NA,5,1,8779.60396971124,"Other","South Asian","056","Leaside-Bennington"
"I9XqZhIwBSWecIewm4p49Q","ADDA Bengali Kitchen and Catering","Bangladeshi, Indian",43.69397,-79.27756,NA,4.5,21,12828.1828677352,"Other","South Asian","121","Oakridge"
"RqGgU05tgsC-OJnSae_BsA","Adi Bikrampur Sweets & Fast Food","Bangladeshi",43.6907837577891,-79.290941858898,NA,1,1,11700.0881784016,"Other","South Asian","061","Taylor-Massey"
"hWJfHDl4tUccBO7DuHU3RA","BBQ Chicken Factory","Barbeque, Indian, Bangladeshi",43.6683388070972,-79.3694382456155,NA,4,2,4949.77820641349,"Bar","South Asian","071","Cabbagetown-South St.James Town"
"lwAH4_ETwYIKoWG4ffmghw","Bhabi's Bhorta","Bangladeshi, Indian, Breakfast & Brunch",43.7468749247892,-79.2316342145205,NA,5,1,19024.3294707972,"Brunch/Breakfast","South Asian","138","Eglinton East"
"zhkgpfabEslK856VC_o1zQ","Mom Kitchen","Halal, Bangladeshi, Burgers",43.6544138,-79.3691931,NA,0,0,4381.23701377577,"Street Food","South Asian","073","Moss Park"
"CL1wZ2PuzUXG6PzjRZQICw","Ghoroaa Restaurant","Halal, Bangladeshi",43.69072,-79.29136,"Low",3.6,25,11663.3970347553,"Other","South Asian","061","Taylor-Massey"
"ktf_QNZaJ1IvnXrncZCQqw","Indian Biriyani House","Indian, Halal, Bangladeshi",43.65497,-79.38648,"Low",2.6,78,3061.00207439531,"Other","South Asian","170","Yonge-Bay Corridor"
"6PGwx1k8l8l7rF00xlW_sQ","Dhaka kitchen","Bangladeshi",43.7050618,-79.2885483,NA,4,1,12629.4750340316,"Other","South Asian","120","Clairlea-Birchmount"
"gzm1p-iaIlx8O15GFezgAg","Madinah Premium Grill","Bangladeshi, Indian",43.69446,-79.27515,NA,0,0,13019.8364390461,"Other","South Asian","121","Oakridge"
"AB8iyTHUEC7WCsoKWv49aQ","Masala King","Indian, Bangladeshi",43.70549,-79.25228,NA,4.1,10,15206.3529155521,"Other","South Asian","122","Birchcliffe-Cliffside"
"4jwyHk6tS7IuHLYP80E_Ww","Azmi Shawarma & Biryani","Bangladeshi",43.6906752947667,-79.2911487887521,NA,4.5,2,11679.8820194594,"Other","South Asian","061","Taylor-Massey"
"LsQLGpis4hTqusAsqE28YQ","Dhaka Biryani House","Bangladeshi, Indian",43.69234,-79.28247,NA,2.8,4,12387.3556555796,"Other","South Asian","121","Oakridge"
"D9IvgZeBD2qFfhIRbOcBFQ","Cafe D Taj","Bangladeshi",43.69397,-79.2775599,"Medium",4,15,12828.1828677352,"Other","South Asian","121","Oakridge"
"XE1DgD6as8UHpmz0XK45qg","Premium Sweets","Indian, Bangladeshi, Breakfast & Brunch",43.7224684256342,-79.2889939299142,NA,3.7,46,13714.2790805528,"Brunch/Breakfast","South Asian","120","Clairlea-Birchmount"
"L_QLIazGQUSJt6oEU_ZGMQ","Ruposhi Bangla Restaurant","Venues & Event Spaces, Halal, Bangladeshi",43.752476,-79.26217,NA,4,4,17515.8104822406,"Other","South Asian","156","Bendale-Glen Andrew"
"awpWHkiAHA5udxDwV7d7Zg","Adi Biryani & Kabab House","Bangladeshi",43.7072792,-79.2695618,NA,3.5,4,14114.1192392332,"Other","South Asian","120","Clairlea-Birchmount"
"m_BDldRhgvt6vxQImDClsQ","Mom Kitchen","Halal, Indian, Bangladeshi",43.706653639214,-79.2514920764903,NA,0,0,15323.8209347546,"Other","South Asian","122","Birchcliffe-Cliffside"
"iH-B_gXXZbnSiV48uyjjfA","Makkah Restaurant","Pakistani, Indian, Bangladeshi",43.6906019402392,-79.2918705940247,NA,4,2,11623.9853744908,"Other","South Asian","061","Taylor-Massey"
"9pp4WAPcvgwA_3FsHmMXBA","Chawk Bazar South Asian Eatery","Indian, Pakistani, Bangladeshi",43.74264,-79.3083599,"Medium",3.5,55,14174.1375456647,"Other","South Asian","119","Wexford/Maryvale"
"jwbStTEfbIWmSD3T3p2hoQ","Masala King","Bangladeshi",43.70549,-79.25228,NA,0,0,15206.5039856362,"Other","South Asian","122","Birchcliffe-Cliffside"
"gdFsqlY3uUgWgGFLjoxTiw","Karai Kababz and Dhaka Kachchi","Bangladeshi",43.71586,-79.26196,NA,0,0,15082.7621839147,"Other","South Asian","120","Clairlea-Birchmount"
"GzmCPRr0sZHtkbYunG8WtA","Ghoroaa Classic","Bangladeshi",43.69444,-79.27537,NA,2.4,5,13006.3406477765,"Other","South Asian","121","Oakridge"
"W9b2jzWZyhw-wbIUiBhWZw","Ghoroaa","Halal, Kebab, Bangladeshi",43.732867,-79.268849,NA,0,0,15703.2166385755,"Other","South Asian","125","Ionview"
"wJaT_knXpP549fO0VIvsCw","Al-Mani Grill and Biryani","Indian, Bangladeshi",43.6889,-79.2995,NA,2.4,8,10989.1541247213,"Other","South Asian","062","East End-Danforth"
"LG57WrTcnPeuTy6aJy3IYw","Premium Sweets","Desserts, Bangladeshi",43.7435481,-79.2177143,"Medium",2.6,5,19730.2323137161,"Cafe/Bakery","South Asian","139","Scarborough Village"
"ORwR-31O85lGRDBAQuc2ew","Mejban Bari","Bangladeshi, Halal",43.69265,-79.28307,NA,0,0,12357.1662362986,"Other","South Asian","121","Oakridge"
"RyDiwx4xD3Lx8sWHx1aFlQ","Smoque N' Bones","Barbeque, American, Southern",43.6457027819391,-79.4107432752393,"Medium",3.8,439,924.293636554646,"Bar","North American","162","West Queen West"
"N0dQQLb4R0ACN-bacCQTKg","Favorites","Salad, Barbeque, Thai",43.6473606954857,-79.4201145725201,NA,4.1,50,270.2748731167,"Bar","East Asian","081","Trinity-Bellwoods"
"TqMTY6xTHThm0C7J1pJ7Aw","Pig Out BBQ","Barbeque, American, Sandwiches",43.66317,-79.40253,"Medium",4,112,2525.90531484049,"Bar","North American","079","University"
"QA30Lo1NlV8SjnkmEkd1-A","Daldongnae Korean BBQ - Christie","Korean, Barbeque",43.664348,-79.415688,"High",4.4,116,2163.43349919448,"Bar","East Asian","095","Annex"
"nrUoS2wgmJ1LSkFfSlOjvg","Bonimi","Cafes, Modern European, Barbeque",43.64513,-79.52041,"Medium",4.5,51,7907.10214147993,"Cafe/Bakery","European","016","Stonegate-Queensway"
"mbREJnVy5_PnMwulZV7aiQ","Daldongnae Korean BBQ - Kensington Market","Korean, Barbeque",43.65551,-79.398598,NA,5,2,2190.90418917649,"Bar","East Asian","078","Kensington-Chinatown"
"RXKFjyJ3X7_WCl5KC4lDhw","Daldongnae Korean BBQ - Dundas Square","Korean, Barbeque",43.658244,-79.381345,NA,4.3,56,3570.6029401757,"Bar","East Asian","168","Downtown Yonge East"
"OZfhA7YFdXpuec9delNGpg","A BBQ House","Barbeque",43.66709,-79.385695,NA,4.8,6,3796.60832167384,"Bar","Other","169","Bay-Cloverhill"
"2Wg3jjooo6e7oN9WVw9ZQA","Turquoise Grill House","Turkish, Salad, Barbeque",43.6477823161256,-79.3967587148284,NA,5,2,2065.20225827756,"Bar","Middle Eastern","164","Wellington Place"
"qR4EIktJfQKc4rnKgBzvtw","Gyubee Japanese Grill - Bloor","Barbeque, Japanese",43.66716,-79.40047,"High",4.2,353,2970.5402306689,"Bar","East Asian","079","University"
"vvapae5E4fnZXWG8Wylzyw","Gyubee Japanese Grill - Dundas","Japanese, Barbeque",43.6551427,-79.3857634,"High",4.2,262,3121.87707637384,"Bar","East Asian","170","Yonge-Bay Corridor"
"wSojc-y-d7MWiGWdy8deCg","Barque Smokehouse","Barbeque, Smokehouse",43.6480097,-79.4496592,"Medium",3.9,553,2225.31024113165,"Bar","Other","086","Roncesvalles"
"8JuuD6-O8Q06J8ekzOGcJg","Cherry Street","Barbeque, Chicken Wings, Cocktail Bars",43.6504328556375,-79.3894104,NA,5,1,2697.38442746181,"Bar","Other","078","Kensington-Chinatown"
"8716XDB7zw_gBfXg0EBZEQ","Memphis BBQ","Barbeque, American",43.789337,-79.587131,"Medium",4.5,347,20773.7928252596,"Bar","North American",NA,NA
"QX5Y_BIxlMG3B3vV1zx1Gw","Cherry Street BBQ","Barbeque",43.6456,-79.35229,"Medium",3.9,221,5626.64359633405,"Bar","Other","070","South Riverdale"
"FvjimdPd4hMEcjWIimsbgA","Good Brothers BBQ","Chinese, Barbeque",43.6532693562806,-79.3969745587187,NA,4.3,19,2209.02355482968,"Bar","East Asian","078","Kensington-Chinatown"
"FhZaBOpSqf0pQmsEYxUPyg","Zakkushi on Queen West","Japanese, Tapas/Small Plates, Barbeque",43.647115,-79.405517,"High",4.4,63,1356.98780790367,"Bar","East Asian","081","Trinity-Bellwoods"
"Id8VDaRh5f4Wf3mLy2AHdQ","Chao Lay","Thai, Seafood, Barbeque",43.680425,-79.430647,NA,5,1,3945.98506393749,"Bar","East Asian","094","Wychwood"
"X7R84JGGwrpEqm9h2rOXdA","Hello Cupbop","Korean, Barbeque, Fast Food",43.6538385319017,-79.3951393291354,NA,4.5,6,2369.66481163894,"Bar","East Asian","078","Kensington-Chinatown"
"ct1BldgnOvR_iF8fVLD6hA","Smoque N' Bones","Barbeque, Southern, American",43.6561129204886,-79.3937432393432,NA,4,24,2579.13371380208,"Bar","North American","078","Kensington-Chinatown"
"dg5hk2uYsxrcLs7St66C_A","Mapo Korean BBQ","Barbeque, Korean",43.6639221406138,-79.4177539,"Medium",4.1,79,2083.05984124938,"Bar","East Asian","095","Annex"
"6mUidMn4-TEj3_-LD3lsSQ","St. Matthew's BBQ Chicken","Portuguese, Barbeque",43.68209,-79.46899,"Medium",4.4,33,5545.25308032641,"Bar","European","110","Keelesdale-Eglinton West"
"4BPxSdtChFilKRjbDR-k9Q","The Backyard Smokehouse","Barbeque, Burgers, Smokehouse",43.6750778706599,-79.4067638772985,NA,3.7,26,3519.34150323927,"Bar","Other","095","Annex"
"WsrsfgYl-Rrz6D2zBNCn_w","Taisho Japanese Grill","Japanese, Barbeque",43.6559052477579,-79.3931938253142,NA,4.1,40,2608.1367370432,"Bar","East Asian","078","Kensington-Chinatown"
"fQwB9Z98YEhkJit7c3z51A","The Carbon Bar","Barbeque, Bars, American",43.653088,-79.374829,"High",3.9,440,3905.53737828438,"Bar","North American","168","Downtown Yonge East"
"MHRv_rT0JBjIoWB-CcGMCg","Mapo Pocha Soju Bar","Korean, Bars, Barbeque",43.6640448,-79.4167613602252,NA,4.5,8,2111.6641951266,"Bar","East Asian","095","Annex"
"QrUNtCTca7HbF_t82xs8Ig","Thong Lor","Thai, Bars, Barbeque",43.6670164571294,-79.381284378469,NA,5,3,4072.89276208974,"Bar","East Asian","167","Church-Wellesley"
"oe3r-qGi4BgqW1LmPFOoEQ","Koha Pacific Kitchen","Barbeque, Korean, Fast Food",43.6491727241215,-79.3794612863824,NA,4,1,3465.42051376981,"Bar","East Asian","170","Yonge-Bay Corridor"
"DpNav6vZSD4ivOgRvX_i4g","The Greek Kitchen and BBQ","Greek, Barbeque, Burgers",43.66032,-79.41502,NA,0,0,1749.94887773325,"Bar","European","080","Palmerston-Little Italy"
"QABMhiuARzojyPYCATc2Pw","Dukes Refresher","American, Bars, Barbeque",43.648542,-79.372899,"Medium",4.3,18,3982.76252985557,"Bar","North American","166","St Lawrence-East Bayfront-The Islands"
"8VHLeEC7kH6nwn1HnqwMKQ","Dang Smoke BBQ","Food Trucks, Barbeque",43.6617164611816,-79.3908462524414,"Low",4.8,12,3230.68280172305,"Bar","Other","169","Bay-Cloverhill"
"xDmVyd_xl0Hsf3hFmYwrHg","Beach Hill Smokehouse","Barbeque, Desserts, Sandwiches",43.68409,-79.3005,"Medium",4.3,164,10699.255870156,"Cafe/Bakery","Other","062","East End-Danforth"
"DLkaSKMoeeQO-_1C_lzh2A","Bairrada Churrasqueira Grill","Portuguese, Barbeque, Seafood",43.65329,-79.42868,"Medium",3.2,135,1013.87138876714,"Bar","European","083","Dufferin Grove"
"dfqLhdQY9e6EiXMk9t-8WQ","Martins Churrasqueira","Barbeque, Portuguese, Desserts",43.6665079966188,-79.497883,NA,3.6,17,6520.60742954756,"Cafe/Bakery","European","111","Rockcliffe-Smythe"
"InS3fIio8ktbWUhgO3ZuIw","Beach Hill Smokehouse","Barbeque, Sandwiches, Smokehouse",43.6515982309058,-79.4749065842065,NA,4.5,14,4293.06069285864,"Bar","Other","088","High Park North"
"gvM3YlaP8HWenylTkGFYUw","Toronto Island BBQ & Beer","Venues & Event Spaces, Barbeque, Cocktail Bars",43.6233516,-79.3786292,"Medium",2.7,52,4284.7624438075,"Bar","Other","166","St Lawrence-East Bayfront-The Islands"
"tX6kAoxMCJjLU5BikGpUdA","Stop BBQ Chicken","Portuguese, Brazilian, Barbeque",43.66585,-79.43811,"Low",4.1,16,2601.46557171249,"Bar","European","171","Junction-Wallace Emerson"
"m4veInBYwqlm49Hbj5rE6g","Mr Yes Noodlebar","Chinese, Barbeque, Noodles",43.6573187287276,-79.4002665,NA,3.3,4,2203.90591749916,"Bar","East Asian","078","Kensington-Chinatown"
"CY3N_T_35gqOXkwQbSeSTA","Hong Fatt B-B-Q","Barbeque, Chinese",43.6532,-79.39585,"Low",3.9,65,2288.25031816227,"Bar","East Asian","078","Kensington-Chinatown"
"3M-CRaV76ED9qz2_nDyz6w","Levande Bakery & BBQ","Bakeries, Barbeque",43.6798193798121,-79.3417049265519,NA,5,2,7519.40098061574,"Cafe/Bakery","Other","066","Danforth"
"vE0XJhAJcDpPW3ywTPYscg","Tiger's Cup Bap","Korean, Barbeque",43.6474539883775,-79.3782790043327,NA,4,2,3542.9298927968,"Bar","East Asian","170","Yonge-Bay Corridor"
"NOIXp-AUbEGN-3mgtDGITA","Havana Sanguich","Colombian, Sandwiches, Barbeque",43.6500663,-79.3913874,NA,4.6,16,2533.35910539122,"Bar","Latin American","078","Kensington-Chinatown"
"xdcUdYGDb0oGZvRamlUyxw","New Lanzhou Noodle Restaurant","Noodles, Barbeque",43.6557856913438,-79.3937187641859,NA,4,4,2564.40887086138,"Bar","Other","078","Kensington-Chinatown"
"E3fK-R2ShkZc6tIta_3pbw","Rui's  BBQ","Portuguese, Barbeque",43.6826,-79.46472,"Low",4.2,17,5360.26875567947,"Bar","European","110","Keelesdale-Eglinton West"
"j8bZqp-LVDLd19zIW3HaBA","Alpha’s Shawarma","Middle Eastern, Barbeque, Mediterranean",43.6473362,-79.404599,NA,4.5,30,1434.1560851269,"Bar","Mediterranean","081","Trinity-Bellwoods"
"gWainRDwQaDg7YRZAaotdw","Kasai Grill House","Korean, Barbeque, Sushi Bars",43.65532,-79.41615,"Medium",3.6,80,1198.44812231252,"Bar","East Asian","080","Palmerston-Little Italy"
"a_2yshMTGJIBRvSrQJzl0A","Dave's Genuine Deli","Barbeque, Delis, Poutineries",43.6471980613827,-79.3994129446029,NA,3.3,4,1845.60976805373,"Bar","Other","164","Wellington Place"
"kmTPecVJV-1aEP1rapNDGw","Churrasqueira Martins","Portuguese, Barbeque, Seafood",43.680761,-79.473499,"Medium",3.5,87,5692.93300613893,"Bar","European","110","Keelesdale-Eglinton West"
"60-tdmo4WMdx5wGQt1PnOQ","Wings N Dip","Chicken Wings, Barbeque, Burgers",43.6804917205869,-79.4307730184352,NA,0,0,3954.43130971272,"Bar","Other","094","Wychwood"
"rbD0wHlm7E5zFnCaSZ4Cqw","Cretaceous","Barbeque, Food Delivery Services",43.664001,-79.41705,NA,0,0,2098.07601203873,"Bar","Other","095","Annex"
"_E5YdG5i8Vf-FFRggQrv_g","The Bull BBQ Pit","Barbeque, Sports Bars, Breakfast & Brunch",43.6655755516306,-79.4624973388994,NA,5,1,3936.29215390972,"Bar","Other","090","Junction Area"
"NsYGSuyIhl5e7E12N5QXJA","Omiwol","Korean, Barbeque, Noodles",43.7709,-79.33207,NA,4.5,12,15718.0432257481,"Bar","East Asian","053","Henry Farm"
"ALkOqlWODyxPg5VSp0HLrg","Zakkushi On Carlton","Japanese, Tapas/Small Plates, Barbeque",43.66343,-79.37062,"High",4,352,4606.0571133018,"Bar","East Asian","073","Moss Park"
"Ae_emurrfSSfgiPCaJ-uMw","The Butcher’s BBQ","Burgers, Barbeque, Sandwiches",43.65161896,-79.38359833,NA,5,1,5084.51166585883,"Bar","Other","170","Yonge-Bay Corridor"
"G7lpRqDIIKiDoHCu-UPNDA","Honestly Good","Fast Food, Chicken Shop, Barbeque",43.6117498085079,-79.5574985,NA,4.5,6,11515.0861469931,"Bar","Other","159","Etobicoke City Centre"
"WdB_1TDZanjfBcT2Xj5Ljg","Boo Radley's Junction Bar and Grill","Bars, Barbeque",43.66614,-79.45028,"Medium",3.4,50,3215.31980972784,"Bar","Other","171","Junction-Wallace Emerson"
"AR-ewpzqQnx0NYxZo72Wow","Mix2 Grill & Hot Pot","Hot Pot, Barbeque",43.65375,-79.39568,NA,3.7,43,2318.92889878274,"Bar","Other","078","Kensington-Chinatown"
"OllK5_S-7svgSwbUfx1xYA","King's Noodle Restaurant","Chinese, Barbeque, Noodles",43.6531,-79.3985,"Medium",3.3,465,2086.16145023867,"Bar","East Asian","078","Kensington-Chinatown"
"A1t8v4bWahSC4TrVTiy1XA","Benny’s Barbecue","Barbeque, Smokehouse, Sandwiches",43.7104385970068,-79.3989319102005,NA,4.1,28,7463.07520356578,"Bar","Other","173","North Toronto"
"iUQzNGoiovJ4AMfHtSsn8Q","Belly & Bao","Chinese, Barbeque",43.63933,-79.42059,NA,0,0,695.578784826941,"Bar","East Asian","163","Fort York-Liberty Village"
"7EZGYd_9PXWfRu04-vzKKA","Pita Land","Middle Eastern, Barbeque",43.66528,-79.40358,"Medium",4.5,15,2671.14641950381,"Bar","Middle Eastern","079","University"
"pGhZATGoC1j6YcBDtnbscg","BBQ @ Bloor","Burgers, Barbeque, Creperies",43.661986,-79.426611,NA,0,0,1870.26129708056,"Bar","Other","172","Dovercourt Village"
"UWUP5urWlEuZKb1YMshiSg","Lee Yakiniku","Barbeque, Bars, Japanese",43.773455,-79.414284,NA,3.3,27,14244.1049616571,"Bar","East Asian","037","Willowdale West"
"2Q89PhkcyT9uZnQORmqMKg","House of Gourmet","Seafood, Noodles, Barbeque",43.65336,-79.39718,"Medium",3.5,470,2195.4428844974,"Bar","Other","078","Kensington-Chinatown"
"fiLcl_-nQAq0LSGdviznJA","Long Time No See","Barbeque, Pubs, Chinese",43.65318,-79.39524,"Medium",3.2,21,2334.21940553069,"Bar","East Asian","078","Kensington-Chinatown"
"o6QjaJh73eOSWu7wwc8k_g","Zao Bar And Grill","Chinese, Bistros, Barbeque",43.65318,-79.39524,NA,4.3,3,2334.22345814083,"Bar","East Asian","078","Kensington-Chinatown"
"ZGtv3ROGb2TqZil9Ptek3A","Churrasco of St Lawrence","Barbeque, Sandwiches",43.6490099,-79.37184,"Low",3.9,45,4081.64658609712,"Bar","Other","166","St Lawrence-East Bayfront-The Islands"
"6myiNQJCjU-QnUVL7T4SoQ","Cowboys Grill","Barbeque, Burgers, Sandwiches",43.70021,-79.46856,NA,5,2,7175.53621957726,"Bar","Other","030","Brookhaven-Amesbury"
"0LkgwaTMvYaU2V0JDRNOjQ","Scotty Bons Caribbean Grill","Caribbean, Barbeque, Halal",43.6225455993286,-79.5213967268691,NA,4.3,10,8378.32309433522,"Bar","Latin American","159","Etobicoke City Centre"
"Sc4pUTYgI7FQb1i8aa0csg","Churrasco of St Clair","Portuguese, Barbeque",43.68155,-79.42527,"Medium",3.4,50,4019.61088164117,"Bar","European","094","Wychwood"
"6hkHrWb82XfJdZ-SJmCKCg","Wok & Roast Chinese BBQ","Chinese, Barbeque",43.66505,-79.35218,"Low",3.4,111,6044.61774845514,"Bar","East Asian","070","South Riverdale"
"9baxxLTKt6gBlqBjY4AUNg","Smokeshow BBQ & Brew","Barbeque",43.7071776,-79.3900127,NA,2.4,21,7333.99993023741,"Bar","Other","174","South Eglinton-Davisville"
"0JCXUSE0f0SExGnVWuQWbQ","Flame & Smoke","Barbeque, Sandwiches, Soul Food",43.6515921,-79.4040568,NA,3.3,3,1612.59263527291,"Bar","Other","078","Kensington-Chinatown"
"MhRpSowt0btjV4mUplTQ6g","Greelz","Burgers, Barbeque, Fast Food",43.69024,-79.49899,NA,5,1,7932.2633412807,"Bar","Other","115","Mount Dennis"
"Rex5_2j_ao7XF9wx8nT7rA","Bbq Chicken and Pub","Chicken Wings, Barbeque, Salad",43.677933263403,-79.3491759896278,NA,4.6,7,6896.40325366287,"Bar","Other","068","North Riverdale"
"WgTxxZbbP8Lal8ItLq9xLA","Ilocos Pride","Filipino, Barbeque, Kebab",43.708700607662,-79.4529754668474,NA,0,0,7453.09510936425,"Bar","East Asian","031","Yorkdale-Glen Park"
"rqHnv41IbKEqGEFdrLexOw","Chuck's Roadhouse","Barbeque, Sports Bars, Burgers",43.6500349,-79.6041711,NA,5,1,14648.1381700786,"Bar","Other","011","Eringate-Centennial-West Deane"
"a8oKJz0ASweAhbAj1pwkxg","Tasty BBQ","Barbeque, Noodles, Chicken Wings",43.618033,-79.59487,NA,5,1,14224.0742741218,"Bar","Other",NA,NA
"d2kxPBKkJXG1LQz-Z_8vsQ","Pang‘s BBQ","Chinese, Barbeque",43.7792263439169,-79.4173607932543,NA,4,1,14878.1220835271,"Bar","East Asian","037","Willowdale West"
"tGBeFfwXCUZOsb0YWiMWIA","Ka Chi Korean Restaurant","Korean, Barbeque, Soup",43.65447,-79.39933,"Low",3.7,160,2092.85156117272,"Bar","East Asian","078","Kensington-Chinatown"
"EKeck5myBgPqy2ShyGEjHw","AAA Bar","Barbeque, Dive Bars, Chicken Wings",43.65178,-79.37272,"Medium",3.5,127,4034.1570119257,"Bar","Other","168","Downtown Yonge East"
"zJD8uU8yTQ1SUeG_EMJtnw","Luen Hing Barbecue","Barbeque",43.5973104226602,-79.5949380844831,"Low",4.3,22,14898.260770141,"Bar","Other",NA,NA
"nktQ_aBRp5CmVOkXR0Mz1g","Arisu Korean BBQ & Sushi","Japanese, Korean, Barbeque",43.6651,-79.41265,"Medium",3.4,238,2311.59787791297,"Bar","East Asian","095","Annex"
"9LimxWLM3URfrCcQsUJ3yg","Breakwall BBQ","Barbeque, Sports Bars, American",43.6693242,-79.304498,"Medium",4.1,71,9835.30572424201,"Bar","North American","063","The Beaches"
"08eeGaILD8rg93S1x-p-ow","Lung Tung Bbq Food","Barbeque",43.78537,-79.27748,"Low",4.3,23,19350.52539905,"Bar","Other","128","Agincourt South-Malvern West"
"_uozYXJl42wCax5HG5kU0Q","Rodeo Brazilian Steakhouse","Steakhouses, Barbeque",43.6762554,-79.3581314,"High",3.1,106,6188.82973139224,"Bar","Other","068","North Riverdale"
"-4uT6QFVaRtc2Zmxvtd9Vg","BBQ Express","Fast Food, Barbeque",43.6703239574042,-79.3906814977527,NA,4.5,15,3751.95186745822,"Bar","Other","095","Annex"
"35NxfCGKzkuy224xYYrSPA","Aragoz","Egyptian, Barbeque, Seafood",43.7383249961754,-79.2183214053512,NA,4.5,13,19374.5292943616,"Bar","Middle Eastern","139","Scarborough Village"
"lxnhCO-lBalLySOGiyfgWQ","Yummy Wok N Bbq House","Barbeque",43.75623,-79.51813,"Low",4,17,14545.1963016855,"Bar","Other","025","Glenfield-Jane Heights"
"mlTrhDLyVCzgyvtHQyYkuw","Some Time BBQ Grill Restaurant & L.L.B.O.","Chinese, Barbeque",43.65578,-79.39366,NA,2.8,4,2565.62136779122,"Bar","East Asian","078","Kensington-Chinatown"
"mvFnzvEJ13eDRunRUJIqEw","Mr Corn","Food Trucks, Barbeque, Burgers",43.6525485,-79.3835118,NA,5,1,3212.78237935108,"Bar","Other","170","Yonge-Bay Corridor"
"yhDAzBBjFujZbHwBPfE2eQ","Daldongnae Korean BBQ - Empress","Korean, Bars, Barbeque",43.770782,-79.41295,"High",4,128,13953.3784678708,"Bar","East Asian","151","Yonge-Doris"
"vLg-vz5lVDrxCDafWEGbfA","Shinta Japanese BBQ","Japanese, Barbeque",43.76828,-79.41223,"High",4.1,91,13725.7449007017,"Bar","East Asian","151","Yonge-Doris"
"q3B9eQioU-kYW7DHhHoKJA","Tahanan Filipino Cuisine","Filipino, Barbeque, Breakfast & Brunch",43.746793,-79.436714,NA,5,1,11330.6068958822,"Bar","East Asian","033","Clanton Park"
"kyo4ePnymGR2wC-rEKTtwQ","KS² The Halal Steak House","Steakhouses, Barbeque, Halal",43.7157260439219,-79.2593867,NA,4.6,5,15248.1216026478,"Bar","Other","120","Clairlea-Birchmount"
"XhJWPRqwVCZKr7vieCKX6g","George's BBQ Chicken","Barbeque",43.6898583,-79.349139428836,"Medium",2.7,31,7675.89422270709,"Bar","Other","057","Broadview North"
"oMgDbkk0hlPYFUmwAOVjgQ","Leslieville Pumps","Sandwiches, Convenience Stores, Barbeque",43.6606164337603,-79.3414839601572,"Medium",3.7,128,6710.71933878168,"Bar","Other","070","South Riverdale"
"ApDZtcwf021n98tE3jSfsA","Joey Turks Island Grill","Caribbean, Sandwiches, Barbeque",43.726617,-79.2938817,NA,3.7,3,13708.3553673649,"Bar","Latin American","119","Wexford/Maryvale"
"_rIZa2kEjzGEM6UgOJ-vhw","Pimento Jerk Food Truck","Food Trucks, Barbeque",43.6487,-79.38545,NA,4.5,6,3257.44847100239,"Bar","Other","170","Yonge-Bay Corridor"
"up43ZFIMAzCM7sEeQWx08A","Daldongnae Korean BBQ - Mississauga","Korean, Barbeque",43.598063,-79.594339,NA,4.2,74,14817.2505905933,"Bar","East Asian",NA,NA
"9pS_dM96NEfYJG75OFKzFQ","BBQ Chicken","Korean, Barbeque, Chicken Shop",43.772094,-79.3453689292073,NA,4,5,15375.5297060632,"Bar","East Asian","053","Henry Farm"
"C-BBWjzcytDi9qG9ozgVCw","Armenian Bistro","Modern European, Barbeque, Comfort Food",43.63206,-79.54431,NA,4.4,10,9903.48939383756,"Bar","European","159","Etobicoke City Centre"
"7t1mdOPFsbW8-AxTTL8ZtQ","Winner BBQ Chinese Cuisine DT","Chinese, Barbeque, Chicken Shop",43.65931,-79.38256,NA,4.5,2,3536.74105564859,"Bar","East Asian","170","Yonge-Bay Corridor"
"E98cfmwWx6P1zVu0DDLmPA","Smokehouse & BBQ","Barbeque, Southern, Chicken Wings",43.7817418,-79.5710115,NA,4.2,10,19302.8969339882,"Bar","Other",NA,NA
"oo73pe5tERpDxaa_eSY2tQ","Iqbal Kebab & Sweet Centre","Pakistani, Barbeque, Seafood",43.70659,-79.35144,"Medium",3.7,56,8840.27371431698,"Bar","South Asian","055","Thorncliffe Park"
"2RAtTdgsnw_fax8yW9wg2w","Lavrador Bbq","Barbeque",43.69346,-79.46142,NA,5,1,6187.89740626803,"Bar","Other","108","Briar Hill-Belgravia"
"Oqp45gOTgqPIkvdvZCdsug","Kobi Korean BBQ","Korean, Barbeque",43.5860950707569,-79.6103358652613,NA,3.6,35,16520.0508872388,"Bar","East Asian",NA,NA
"WRJOwG8VCuG2wxw5wwPIZQ","Paulo Sardinha BBQ Chicken","Chicken Shop, Portuguese, Barbeque",43.6684563313692,-79.4865791872144,NA,3.7,6,5773.64314086393,"Bar","European","111","Rockcliffe-Smythe"
"4_L9bnIvY8TLDfiTBGcnRA","Daldongnae Korean BBQ - Cummer","Korean, Barbeque",43.789726,-79.418312,"High",4.2,382,16039.2207908855,"Bar","East Asian","036","Newtonbrook West"
"Hoh9KQeNrkc4dZ8ru59rgw","The Bull BBQ Pit","Barbeque, Burgers, Sandwiches",43.67786,-79.44459,NA,2.4,11,4029.12313970101,"Bar","Other","092","Corso Italia-Davenport"
"DyC8NKdf3KnOonLHrAHu4g","The Carbon Bar BBQ Kitchen Hub","Barbeque",43.6235057840627,-79.512260333166,NA,2,1,7644.27486582694,"Bar","Other","016","Stonegate-Queensway"
"-LKP1w7XPYMGhgjlm6s41w","BBQ Chicken","Korean, Barbeque",43.71028,-79.3988,NA,4.1,10,7459.86174282643,"Bar","East Asian","173","North Toronto"
"iD9D0O-EFvjvAP0tOoDO3A","Tiko Chicken Barbecue","Barbeque",43.69733,-79.44363,NA,0,0,6018.11266718573,"Bar","Other","108","Briar Hill-Belgravia"
"5c_yZibvEyzcMzOFfU6A9Q","Horno BBQ","Barbeque",43.6550713,-79.401947,NA,3.3,3,1930.06397890815,"Bar","Other","078","Kensington-Chinatown"
"0M_YRQtXT9bv973b5K9qjw","Churrasqueira Andrade","Portuguese, Barbeque, Seafood",43.6685450940309,-79.4865979626775,NA,3,2,5779.36920470746,"Bar","European","111","Rockcliffe-Smythe"
"whmHqZTdCrP9h1uBZ6MbfA","Gui Gui","Kebab, Korean, Barbeque",43.7874216393039,-79.4172048568726,NA,3.7,45,15789.4143780442,"Bar","East Asian","050","Newtonbrook East"
"-1GLB6sO-XOGt_rvHg2P6Q","Shah Abbas","Persian/Iranian, Barbeque, Middle Eastern",43.68734,-79.39399,NA,3.3,6,5179.14466697136,"Bar","Middle Eastern","097","Yonge-St.Clair"
"rPhuM3qlRD7XZNpq7yKznA","J & T Jamaican","Barbeque, Seafood, Soup",43.7006166815492,-79.5173751873998,NA,0,0,9806.23096851884,"Bar","Other","113","Weston"
"_81fRJ9m8Fn1s8ixPun46A","Union Social Eatery","Gastropubs, Burgers, Barbeque",43.7639042110806,-79.4111878640642,"Medium",3.7,279,13199.0978291421,"Bar","Other","151","Yonge-Doris"
"1-T7IiQ37VwEuvVFKhhqGg","Chainsmoker","Barbeque, Halal, Sandwiches",43.65003,-79.6035,NA,3.6,26,14648.1370507677,"Bar","Other","011","Eringate-Centennial-West Deane"
"McaRYgVwOCmtWkKxNsXlZg","Royal Meats Bar/Beque","Barbeque, Bars, Comfort Food",43.62558,-79.52893,"Medium",3.6,132,8899.21624470912,"Bar","Other","159","Etobicoke City Centre"
"VxeZoQDFaYO4Ng8WT2S4Kg","Yummy B-B-Q","Korean, Barbeque",43.7480270796486,-79.3487305174743,NA,3.9,37,12843.6072365034,"Bar","East Asian","042","Banbury-Don Mills"
"DKzCbTR_bAZepgG1_p_y6Q","Jkson's Restaurant & Bar","Caribbean, Bars, Barbeque",43.719604,-79.537248,NA,5,1,12389.1628317623,"Bar","Latin American","023","Pelmo Park-Humberlea"
"jp05aFPx7w06y9Rwg_tT8w","Galaxy Bar And Grill","Barbeque, Bars, Chicken Wings",43.7413816,-79.225779224231,NA,0,0,19057.618486822,"Bar","Other","139","Scarborough Village"
"cfXjoEFkvR7rh3tlVhPoJA","King's BBQ Chicken Restaurant","Barbeque, Chinese, Peruvian",43.68186,-79.47094,NA,3.3,3,5636.34394475854,"Bar","East Asian","110","Keelesdale-Eglinton West"
"OoltsCTAg6aF2VbB_4s7qA","Kisha’s Tropical Cuisine","Caribbean, Barbeque",43.65378,-79.37372,NA,3,3,4007.21137369637,"Bar","Latin American","168","Downtown Yonge East"
"ZobB_ZrgLrxwikCNA6Txxw","Sing Sing BBQ House","Barbeque",43.6652603,-79.3529282,NA,2.8,4,6024.25079277322,"Bar","Other","070","South Riverdale"
"Vz3sCriSaCLp0pJGwsNKag","Karahi Boys","Pakistani, Barbeque",43.74385,-79.29975,NA,3.7,59,14717.6260845929,"Bar","South Asian","119","Wexford/Maryvale"
"h9pgw0FaCSKJI1OFvNgtwg","Brickyard BBQ & Bar","Barbeque",43.6209736945916,-79.5490830762815,NA,3.3,25,10566.5414456102,"Bar","Other","159","Etobicoke City Centre"
"gteA1_bDN-spzeiJmaBizg","Ram in the Rye","Bars, Barbeque",43.6579658916211,-79.3778977543116,NA,2.3,8,3827.52246506562,"Bar","Other","168","Downtown Yonge East"
"eCyApTU2n3FkV-UKkI2dyQ","Millz Restaurant","Food Delivery Services, Chicken Wings, Barbeque",43.6095832,-79.5488459,NA,0,0,10971.7904113195,"Bar","Other","020","Alderwood"
"zB8erSywGYxQB06FmVKfYA","The Sun Barbecue Company","Barbeque, Chicken Wings",43.5991,-79.5444,"Medium",5,3,11096.39569745,"Bar","Other","020","Alderwood"
"PLa2EQ60fVpHoxJC5UmQ-A","Costa Verde BBQ Chicken","Portuguese, Barbeque",43.7271004,-79.4825287,"Medium",3.1,26,10302.0625137396,"Bar","European","155","Downsview"
"URvh6DgFyA-d6Z7OVKxczg","Rally Restaurant and Bar","Sports Bars, Barbeque, Smokehouse",43.7174661,-79.305012,"Medium",3.9,113,12366.6498059193,"Bar","Other","043","Victoria Village"
"8PAI294fynViHnxxFsuNqg","West Side Bbq","Barbeque",43.66212,-79.42379,NA,0,0,1863.81106950867,"Bar","Other","080","Palmerston-Little Italy"
"DP7cTZxqsypz-er2DUJUqw","Rolls & BBQ","Halal, Indian, Barbeque",43.7422327022342,-79.6052372620307,NA,0,0,18228.0757365474,"Bar","South Asian","001","West Humber-Clairville"
"2F4UhgnP9VzIhQL_qvfdaA","Daldongnae Korean BBQ - Sheppard","Barbeque, Korean",43.7624550542034,-79.41156,NA,3.8,18,13036.3272718986,"Bar","East Asian","038","Lansing-Westgate"
"K0_7-QjuNKMqVgLnvI5C1g","Chicken Place","Soup, Barbeque, Sandwiches",43.7644938,-79.4763179,"Medium",4.8,24,13942.0661616307,"Bar","Other","027","York University Heights"
"wfodQFCUYXaeVRG34Gy6TQ","George's Deli & BBQ","Delis, Sandwiches, Barbeque",43.65819,-79.37262,"Low",2.6,43,4227.96000596269,"Bar","Other","073","Moss Park"
"DbNJ2Q_fdztet-j7itlh-A","Communal Eats","Food Trucks, Canadian (New), Barbeque",43.7269726846481,-79.5600806,NA,0,0,14317.8984185079,"Bar","North American","005","Elms-Old Rexdale"
"Mt3FH0HY2E-GHzLuKPxJug","Mario's Bbq","Barbeque, Portuguese",43.5783689,-79.6139774,"Medium",3.5,103,17206.2994639223,"Bar","European",NA,NA
"0BHbPGszIQaBaA6u2SqMfQ","Mykolachi","Pakistani, Barbeque",43.63642,-79.62307,NA,3.9,45,16196.0016328203,"Bar","South Asian",NA,NA
"02A-lf3A1SW3mYexFH5xYw","Sumaq Iraqi Charcoal Grill","Barbeque, Middle Eastern",43.744255236665,-79.2977900955116,NA,3.6,62,14857.3898720417,"Bar","Middle Eastern","119","Wexford/Maryvale"
"PECZ9xfK5fjgsuc2Rwufjw","Mimico Pub & Grill","Bars, Karaoke, Barbeque",43.61775,-79.49852,NA,1,1,6877.92862679103,"Entertainment","Other","160","Mimico-Queensway"
"xJxvw8BDhOPUa4NVCwfU3A","Ghadir Meat & Restaurant","Seafood, Middle Eastern, Barbeque",43.7439061598943,-79.3038383884685,NA,4.3,30,14505.1143546322,"Bar","Middle Eastern","119","Wexford/Maryvale"
"FVrZStAgbGBwltiN11zwBg","Esau Parrilla","Food Trucks, Barbeque",43.6516,-79.38331,NA,2.3,4,3230.71575714075,"Bar","Other","170","Yonge-Bay Corridor"
"hY77DYw8mh1WT9yypK4qyA","Arizona Grill Lounge","Barbeque, Mexican, Pubs",43.6835879634285,-79.5936031644176,"Medium",2.3,142,14422.0770985136,"Bar","Latin American","001","West Humber-Clairville"
"6jBkFP7tRYYQJQwtupoIEA","Gujarat Grill","Indian, Barbeque",43.7275935901149,-79.2303182557225,NA,5,1,17930.4780376119,"Bar","South Asian","123","Cliffcrest"
"8x7iKbQD2v_1_rIK71-6Yw","Sultan BBQ & Grill","Halal, Barbeque, Seafood",43.73831,-79.21812,NA,3.3,7,19360.6118531925,"Bar","Other","139","Scarborough Village"
"0jX0DPcwr8YyMIt9IXXGdA","Allwyn’s","Fast Food, Barbeque, Sandwiches",43.7748730573044,-79.5265881128195,NA,4.4,5,16655.4487194459,"Bar","Other",NA,NA
"1ECSJxGQwWdtIVfBVR4-Nw","Delicious Wings House","Chicken Wings, Barbeque, Burgers",43.7546,-79.35225,NA,5,1,13187.2892953955,"Bar","Other","042","Banbury-Don Mills"
"37joQpD9m5AIcrW1c8OBnQ","Urban Smoke Fusion BBQ Food Truck","Street Vendors, Barbeque, Food Trucks",43.719295501709,-79.4695663452148,"Low",3.8,9,9036.77794052968,"Bar","Other","031","Yorkdale-Glen Park"
"dERy_B711ru09qGE0aDOPw","The Chicken Nest","Chicken Wings, Barbeque",43.71873,-79.42993,"High",3.9,17,8149.46046778603,"Bar","Other","032","Englemount-Lawrence"
"pogABGwN6ZQ73yZvKj3WGA","Dupont Bbq Chicken 2","Barbeque, Chicken Wings",43.67155,-79.49332,NA,0,0,6404.01881229953,"Bar","Other","111","Rockcliffe-Smythe"
"FHBbOQM4zinZaoNELbGctw","Flamingo's Restaurant & Bar","Barbeque, Seafood, Burgers",43.6420955,-79.5658623,NA,0,0,11563.8632274074,"Bar","Other","013","Etobicoke West Mall"
"h2tkVYYu3X8dkxc_YrP30A","Sung Sung Barbeque House","Barbeque",43.66516,-79.3520999,NA,1,1,6039.54327114123,"Bar","Other","070","South Riverdale"
"Gq7t6Nb303Iqugbyq-hBWg","Etob Restaurant","Barbeque, Steakhouses",43.72555,-79.55138,NA,3.8,6,13691.2597370912,"Bar","Other","005","Elms-Old Rexdale"
"OGSOt_oJNvH5e372yQCrKg","Roywoods","Caribbean, Barbeque, Sandwiches",43.7251083,-79.4528087,NA,0,0,9190.45400096709,"Bar","Latin American","031","Yorkdale-Glen Park"
"BhfXQEz247HWMBUsQlhhmA","Kam Tat BBQ Restaurant","Barbeque",43.66509,-79.35265,NA,0,0,6009.91009415738,"Bar","Other","070","South Riverdale"
"HWmc1Uwx-ABsrI0ZrQsHqA","Wilson's Haus of Lechon","Filipino, Barbeque",43.78658,-79.27664,NA,3.4,8,19622.7711148287,"Bar","East Asian","128","Agincourt South-Malvern West"
"f9I6n63u7KdJ0JVDPp3jdQ","Ghadir Fish Restaurant","Seafood, Middle Eastern, Barbeque",43.7434285,-79.3044017,NA,3.8,6,14476.673663119,"Bar","Middle Eastern","119","Wexford/Maryvale"
"qAOEbG6J2R2KyKs8r4PXTA","Wing Saints","Chicken Wings, Sports Bars, Barbeque",43.784583,-79.567112,NA,4,1,19374.3539016944,"Bar","Other",NA,NA
"HrfGF19O9dpqwoyOppthpw","Flo's Grill & Kitchen","Barbeque, Chicken Shop, Soup",43.7697598689123,-79.5535891842295,NA,3.3,4,17392.3570956583,"Bar","Other",NA,NA
"-9dR10zmNUc-XNcoIh__BQ","Portugal Barbecue Chicken","Portuguese, Barbeque",43.6825981,-79.4647217,NA,0,0,5352.9934962678,"Bar","European","110","Keelesdale-Eglinton West"
"cF0PKI4NzTpojcQvQRNRLw","Bar B Q Tonite","Barbeque, Pakistani, Indian",43.57949,-79.6176,"Medium",3.1,137,17359.7696994463,"Bar","South Asian",NA,NA
"fYNf1knSo7HofvA80IXVXg","Bbq City Rotisserie Chicken","Barbeque",43.75669,-79.58927,NA,5,1,18272.6968890946,"Bar","Other","002","Mount Olive-Silverstone-Jamestown"
"9LNs7rIaRngiI57TEfSYiQ","I Love BBQ","Barbeque, Chinese",43.7894705,-79.4181252,"Medium",2.8,13,16024.5935694035,"Bar","East Asian","036","Newtonbrook West"
"AVrzrxGpkLQEESJmT-R0PQ","right bite","Middle Eastern, Salad, Barbeque",43.6201854996782,-79.5732791461452,NA,5,1,12477.6695515889,"Bar","Middle Eastern",NA,NA
"f7aSzCCcb3nvsJYZVfvMfg","Grill It Up","Barbeque, Seafood, Fast Food",43.7754495,-79.2541513,NA,4,1,19644.5972478709,"Bar","Other","156","Bendale-Glen Andrew"
"nOeaz3o6UGrCtDkyZCjm5w","Kababians","Salad, Barbeque, Halal",43.73831,-79.21812,NA,0,0,19360.6118531925,"Bar","Other","139","Scarborough Village"
"53Y0f3_gHCirWkEXCYbsgQ","Koi La Grill","Caterers, Halal, Barbeque",43.78768,-79.55162,NA,0,0,18919.3515707996,"Bar","Other",NA,NA
"NYpnwc4yt44SkcBb9dlhtA","Bourbon St Grill","Barbeque",43.7787787,-79.3447208,"Medium",3.5,12,16078.9534047463,"Bar","Other","047","Don Valley Village"
"vaCb_1iC7VxZGd1f1Czcew","BBQ Chicken","Korean, Barbeque",43.76351,-79.41115,NA,3.9,12,13160.8784712902,"Bar","East Asian","151","Yonge-Doris"
"Q1lOSg7on5HLj5xy9YKJyw","Weston Bbq Chicken","Barbeque, Halal, Breakfast & Brunch",43.69975,-79.51555,NA,0,0,9640.28112927858,"Bar","Other","113","Weston"
"xtj8twd1dlODdIZI5FjVoA","Son Lechon Bbq Restaurant","Barbeque",43.7461117,-79.486899,NA,3.7,3,12352.0492742001,"Bar","Other","027","York University Heights"
"3ijLguDlxXRDSPHSVrikPQ","He He Long Bbq Take-Out Shop","Chinese, Barbeque",43.79105,-79.36664,"Low",3.1,32,16792.2403198502,"Bar","East Asian","048","Hillcrest Village"
"ia-m6NJJM0XIrluIVYUTuQ","Papa Ed's BBQ","Filipino, Barbeque, Comfort Food",43.7366506,-79.4368234,NA,0,0,10195.9920758421,"Bar","East Asian","033","Clanton Park"
"31h2Fi2XX_rOUEwiCQ7ABA","Grill City","Filipino, Barbeque",43.7228702971755,-79.2907186731911,NA,3,1,13634.3480067121,"Bar","East Asian","120","Clairlea-Birchmount"
"JDtGO5IeZINteE9g-Eqfdw","Sun Up Barbecue Company","Barbeque",43.72696,-79.43122,NA,3,2,9091.95297737979,"Bar","Other","039","Bedford Park-Nortown"
"gLgzib9xHaC9iQbhq_xmCA","43N BBQ","Barbeque, Chinese",43.7727721390423,-79.4134658575058,NA,3,2,14172.8099971521,"Bar","East Asian","151","Yonge-Doris"
"rz_MbxHYHWwZMT-F5fgfUA","Cusina Lounge","Filipino, Barbeque, Fish & Chips",43.737289174837,-79.4349258765578,"Medium",1.9,28,10260.7209444221,"Bar","East Asian","033","Clanton Park"
"WdhQvQbGd2HAiZ2UmlcVGA","Wild Wing","American, Barbeque, Chicken Wings",43.77288,-79.28023,"Medium",3.5,53,18190.0847520124,"Bar","North American","126","Dorset Park"
"Ft060vaLmEQqHxVBK_6kkA","Hung Fok BBQ Gourmet","Barbeque, Dim Sum",43.7857392632955,-79.3521449782862,NA,3.7,6,16582.9903441308,"Bar","East Asian","047","Don Valley Village"
"HesHSSFdVkQIlP7Nc88GSQ","Shawarma Daddy","Falafel, Barbeque",43.7855005376455,-79.2796417325735,NA,3.9,15,19332.9428089948,"Bar","Other","128","Agincourt South-Malvern West"
"HGcwFo-gVudo1LEYwTD7dg","Carmelos BBQ","Portuguese, Barbeque",43.59563,-79.60372,NA,4,1,15605.4177592078,"Bar","European",NA,NA
"ElyXdaiEE87tn40GlOknMg","Southern Smoke Truck","Barbeque, Food Trucks",43.6709060668945,-79.3162689208984,NA,3,2,8970.07842275227,"Bar","Other","064","Woodbine Corridor"
"5eM6g1ZLsSYAUetHZGi-Cg","Wing Machine","Chicken Wings, Barbeque, Pizza",43.7490152435949,-79.2754819616675,NA,1,3,16484.5704278812,"Bar","Other","126","Dorset Park"
"kb56PJRc9_Wtyp5ZCw1sVA","Bar B Q Tonite","Barbeque",43.6402856335525,-79.6248552883891,"Medium",2.7,61,16315.106571809,"Bar","Other",NA,NA
"M6r6jKPr5tcpdatDn9K5lA","East Court & Mike's BBQ","Chinese, Barbeque",43.7883027,-79.2699046,"Medium",3.8,31,20052.5267045913,"Bar","East Asian","128","Agincourt South-Malvern West"
"nQc6DNZGtHUv_APUvKTq9g","Bella's Bbq Chicken","Barbeque",43.592098,-79.596518,NA,0,0,15233.8790583723,"Bar","Other",NA,NA
"404qZtfySQrUmbeKoM1k1Q","Lonzo's Kitchen","Barbeque, Chicken Wings, Falafel",43.74512,-79.29818,NA,0,0,14886.5590450922,"Bar","Other","119","Wexford/Maryvale"
"iMGt1i5-BUaec5ztaDo1sg","McEwan Outdoor BBQ","Barbeque",43.7362579,-79.3451502,NA,0,0,11845.4672220186,"Bar","Other","042","Banbury-Don Mills"
"lQ0fIxNJZZhAV7MdfG_z-Q","43 Degrees BBQ","Barbeque",43.7727166323825,-79.4134658575058,NA,1,1,14166.6455861854,"Bar","Other","151","Yonge-Doris"
"8ntqcNXnYn8yzI6wnCmFQQ","St Veronus Cafe & Taproom","Belgian",44.305841,-78.3192213609577,"Medium",4.5,59,114811.504982169,"Other","European",NA,NA
"DizSoX0FqH_EvXSHW6wEIQ","Le Petit Déjeuner","Breakfast & Brunch, Belgian",43.65061,-79.37023,"Medium",3.6,405,4220.83052366533,"Brunch/Breakfast","European","073","Moss Park"
"uPa5hrWmHm0n1l4MSyVMGQ","Aloette","French, Bistros, Diners",43.6485583117656,-79.395963,"High",4.3,356,2140.86534732745,"Bistro","European","164","Wellington Place"
"GsersW8TSeEuZQMSs5bBxQ","Cheffry's Artisanal Bistro","Bistros, Halal, Indian",43.64823,-79.39494,NA,4.8,44,2209.10778531187,"Bistro","South Asian","164","Wellington Place"
"-bR_E93JC2MktefiSl1huA","Milou","Bistros, French, Cafes",43.649392,-79.4279101,NA,3.9,43,632.483123977128,"Cafe/Bakery","European","084","Little Portugal"
"Q8TRdS59cq-ie8FqtpjEdQ","Maison T","Bistros, French",43.67052,-79.42632,NA,4.8,24,2804.25932542968,"Bistro","European","172","Dovercourt Village"
"JEXasd9XUHFbt_fIdmdK8g","La Banane","French, Seafood, Bistros",43.64904,-79.4203,"Extra High",4.2,173,428.870436996866,"Bistro","European","081","Trinity-Bellwoods"
"0Vm6qMgCfZIwoIVW29Nr4Q","Ngogo","French, Bistros",43.6469405,-79.4063051,NA,4.5,19,1291.41785697126,"Bistro","European","081","Trinity-Bellwoods"
"O-uIEuv7JLUHajkemx_sVw","Beerbistro","Bistros, Beer Bar, Comfort Food",43.649628,-79.377165,"Medium",3.9,698,3661.29733082195,"Bar","Other","168","Downtown Yonge East"
"dnaf5liDvfAyKqtrPHCcxw","Teller's Bar and Lounge","International, Bars, Bistros",43.64882,-79.37805,"Medium",4.6,13,3567.74778500098,"Bar","International","170","Yonge-Bay Corridor"
"l9ED01htuVR47OegwgbhDw","UK India Bistro","Indian, Bistros",43.65505,-79.41748,NA,5,3,1130.42180555021,"Bistro","South Asian","081","Trinity-Bellwoods"
"3bffEV2SaVCL9WMb151qPQ","Cafe 85- Downtown","Cafes, Bistros, Breakfast & Brunch",43.6582978,-79.3847116,NA,3.7,3,3346.97711068528,"Cafe/Bakery","Other","170","Yonge-Bay Corridor"
"e_cYl6KaEtZYWTvdC-LWnw","Maison Selby","French, Bistros, Cocktail Bars",43.6712727802952,-79.3766000467065,NA,4,132,4658.72998950227,"Bar","European","074","North St.James Town"
"jU_58BeD5q_MOjr_FFQEBw","Marron Bistro","Steakhouses, Kosher, Bistros",43.7004903348,-79.4286329,"High",4.5,12,6139.60943384576,"Steakhouses","Other","102","Forest Hill North"
"LSvEm-WZT_fL2acXWnNrFw","Parquet","Bistros, Beer Bar, Cocktail Bars",43.662564,-79.403625,NA,3.2,6,2418.77000247402,"Bar","Other","079","University"
"ngpRQ-lQEwpiWMqpA2luqw","The Old York Tavern","Beer Bar, Bistros, Breakfast & Brunch",43.64190847177,-79.4064587466248,NA,4.3,3,1329.09860226941,"Bar","Other","162","West Queen West"
"PXkvTI4iJo6SIolhYtANSw","Aloette Bay","Burgers, Wine Bars, Bistros",43.644036,-79.37753,NA,4.4,8,3599.0386224163,"Bar","Other","166","St Lawrence-East Bayfront-The Islands"
"6yZsohxDA97XATTwTlbKIw","Lil Joe Cucina & Bar","Bistros, Venues & Event Spaces",43.66927,-79.33615,NA,4.4,19,7413.05389049092,"Bistro","Other","070","South Riverdale"
"6xen0bxz_cCCHrWCejC8Og","Banbudian Bistro","Bistros",43.6522966023178,-79.397486120931,NA,4.2,5,2130.35023816553,"Bistro","Other","078","Kensington-Chinatown"
"NGZTLv4JBnGsb0ntINvTDg","Joni Restaurant","Bistros, Breakfast & Brunch, Cocktail Bars",43.6692,-79.394887,NA,4.2,25,3433.29444295191,"Bar","Other","095","Annex"
"nsFfkhSd5voL6S2O0Nm19Q","The Queensway Bistro","Bistros",43.62593,-79.50353,NA,4,1,6896.19644467428,"Bistro","Other","016","Stonegate-Queensway"
"8fr_dq2X5ujH5i2bJP238w","Tav's Gnocchi Pizza Bar","Italian, Pizza, Bistros",43.65512,-79.41343,NA,3.9,16,1283.07117273908,"Street Food","European","081","Trinity-Bellwoods"
"UxWH8zRYIBgs6Q2oykvRdw","Cluny Bistro & Boulangerie","Wine Bars, Cocktail Bars, Bistros",43.6505879,-79.3578962,"High",3.5,709,5207.14905269493,"Bar","Other","166","St Lawrence-East Bayfront-The Islands"
"GG9On_mEYGmkkBWUWCkz1g","Moc Brunch & Bistro","Breakfast & Brunch, Bistros, Vietnamese",43.654772,-79.387471,NA,4.3,3,2979.68547846072,"Bistro","East Asian","170","Yonge-Bay Corridor"
